{
  "type": "FeatureCollection",
  "generator": "overpass-ide",
  "copyright": "The data included in this document is from www.openstreetmap.org. The data is made available under ODbL.",
  "timestamp": "2023-07-21T14:31:15Z",
  "features": [
    {
      "type": "Feature",
      "properties": {
        "@id": "node/171171134",
        "created_by": "Potlatch 0.5d",
        "name": "Jassal Departmental Store",
        "shop": "convenience"
      },
      "geometry": {
        "type": "Point",
        "coordinates": [
          75.8474324,
          30.8806773
        ]
      },
      "id": "node/171171134"
    },
    {
      "type": "Feature",
      "properties": {
        "@id": "node/181316289",
        "name": "Ashok Karyana Store",
        "shop": "convenience"
      },
      "geometry": {
        "type": "Point",
        "coordinates": [
          75.8838422,
          30.8687898
        ]
      },
      "id": "node/181316289"
    },
    {
      "type": "Feature",
      "properties": {
        "@id": "node/246912870",
        "created_by": "Potlatch 0.7",
        "name": "Satpal Di Hatti",
        "shop": "convenience"
      },
      "geometry": {
        "type": "Point",
        "coordinates": [
          75.8391201,
          30.8911208
        ]
      },
      "id": "node/246912870"
    },
    {
      "type": "Feature",
      "properties": {
        "@id": "node/246914014",
        "created_by": "Potlatch 0.7",
        "name": "Satpal Di Hatti",
        "shop": "convenience"
      },
      "geometry": {
        "type": "Point",
        "coordinates": [
          75.8434116,
          30.8924466
        ]
      },
      "id": "node/246914014"
    },
    {
      "type": "Feature",
      "properties": {
        "@id": "node/263575322",
        "created_by": "Potlatch 0.9",
        "name": "Robert Clinical Laboratory",
        "shop": "convenience"
      },
      "geometry": {
        "type": "Point",
        "coordinates": [
          75.8723119,
          30.8656351
        ]
      },
      "id": "node/263575322"
    },
    {
      "type": "Feature",
      "properties": {
        "@id": "node/263575929",
        "created_by": "Potlatch 0.9",
        "name": "Dr. Kumar's Homeo Clinic",
        "shop": "convenience"
      },
      "geometry": {
        "type": "Point",
        "coordinates": [
          75.8283212,
          30.8907167
        ]
      },
      "id": "node/263575929"
    },
    {
      "type": "Feature",
      "properties": {
        "@id": "node/266472673",
        "created_by": "Potlatch 0.9a",
        "name": "Priti Departmental Store",
        "shop": "convenience"
      },
      "geometry": {
        "type": "Point",
        "coordinates": [
          77.64853,
          12.9174059
        ]
      },
      "id": "node/266472673"
    },
    {
      "type": "Feature",
      "properties": {
        "@id": "node/293685087",
        "name": "Minnie Bay Market",
        "shop": "convenience"
      },
      "geometry": {
        "type": "Point",
        "coordinates": [
          92.72249,
          11.63969
        ]
      },
      "id": "node/293685087"
    },
    {
      "type": "Feature",
      "properties": {
        "@id": "node/293691032",
        "name": "Saganka emporiium",
        "shop": "convenience"
      },
      "geometry": {
        "type": "Point",
        "coordinates": [
          92.73645,
          11.6645
        ]
      },
      "id": "node/293691032"
    },
    {
      "type": "Feature",
      "properties": {
        "@id": "node/306604811",
        "name": "pavan cycles",
        "shop": "convenience"
      },
      "geometry": {
        "type": "Point",
        "coordinates": [
          76.5248461,
          9.5210099
        ]
      },
      "id": "node/306604811"
    },
    {
      "type": "Feature",
      "properties": {
        "@id": "node/308931128",
        "amenity": "atm",
        "created_by": "Potlatch 0.10f",
        "name": "HDFC",
        "shop": "convenience"
      },
      "geometry": {
        "type": "Point",
        "coordinates": [
          77.3351059,
          28.5765403
        ]
      },
      "id": "node/308931128"
    },
    {
      "type": "Feature",
      "properties": {
        "@id": "node/324219424",
        "amenity": "toilets",
        "shop": "convenience"
      },
      "geometry": {
        "type": "Point",
        "coordinates": [
          74.4244311,
          34.0594643
        ]
      },
      "id": "node/324219424"
    },
    {
      "type": "Feature",
      "properties": {
        "@id": "node/324219425",
        "shop": "convenience"
      },
      "geometry": {
        "type": "Point",
        "coordinates": [
          74.423995,
          34.0595759
        ]
      },
      "id": "node/324219425"
    },
    {
      "type": "Feature",
      "properties": {
        "@id": "node/435688321",
        "addr:housename": "M K Ahmed",
        "shop": "convenience"
      },
      "geometry": {
        "type": "Point",
        "coordinates": [
          77.5577817,
          12.8986874
        ]
      },
      "id": "node/435688321"
    },
    {
      "type": "Feature",
      "properties": {
        "@id": "node/435688323",
        "addr:housename": "Shop and save",
        "name": "Shop and save",
        "shop": "convenience"
      },
      "geometry": {
        "type": "Point",
        "coordinates": [
          77.5582799,
          12.8983313
        ]
      },
      "id": "node/435688323"
    },
    {
      "type": "Feature",
      "properties": {
        "@id": "node/440296289",
        "name": "Suvidha Shopping Centre",
        "shop": "convenience",
        "wheelchair": "no"
      },
      "geometry": {
        "type": "Point",
        "coordinates": [
          72.5591462,
          23.0144556
        ]
      },
      "id": "node/440296289"
    },
    {
      "type": "Feature",
      "properties": {
        "@id": "node/459643717",
        "name": "Singapore Fancy Stores",
        "shop": "convenience"
      },
      "geometry": {
        "type": "Point",
        "coordinates": [
          80.203994,
          13.0541708
        ]
      },
      "id": "node/459643717"
    },
    {
      "type": "Feature",
      "properties": {
        "@id": "node/459650602",
        "name": "Vivek & Co",
        "shop": "convenience"
      },
      "geometry": {
        "type": "Point",
        "coordinates": [
          80.2133316,
          13.0506067
        ]
      },
      "id": "node/459650602"
    },
    {
      "type": "Feature",
      "properties": {
        "@id": "node/459651460",
        "name": "Surya Arcade",
        "shop": "convenience"
      },
      "geometry": {
        "type": "Point",
        "coordinates": [
          80.1960547,
          13.0476071
        ]
      },
      "id": "node/459651460"
    },
    {
      "type": "Feature",
      "properties": {
        "@id": "node/469173453",
        "name": "Pri Knit",
        "shop": "convenience"
      },
      "geometry": {
        "type": "Point",
        "coordinates": [
          75.8420608,
          30.8901113
        ]
      },
      "id": "node/469173453"
    },
    {
      "type": "Feature",
      "properties": {
        "@id": "node/513003890",
        "shop": "convenience"
      },
      "geometry": {
        "type": "Point",
        "coordinates": [
          76.3335805,
          32.2437321
        ]
      },
      "id": "node/513003890"
    },
    {
      "type": "Feature",
      "properties": {
        "@id": "node/513439525",
        "name": "Sri Balaji Kirana",
        "name:te": "బాలాజీ కిరాణా",
        "shop": "convenience"
      },
      "geometry": {
        "type": "Point",
        "coordinates": [
          78.448547,
          17.4415504
        ]
      },
      "id": "node/513439525"
    },
    {
      "type": "Feature",
      "properties": {
        "@id": "node/518616443",
        "addr:street": "ITPL Main Road",
        "fixme": "Place no longer exists",
        "name": "Reliance Fresh",
        "name:kn": "ರಿಲಾಯನ್ಸ್ ಫ್ರೆಶ್",
        "shop": "convenience"
      },
      "geometry": {
        "type": "Point",
        "coordinates": [
          77.7160629,
          12.9601296
        ]
      },
      "id": "node/518616443"
    },
    {
      "type": "Feature",
      "properties": {
        "@id": "node/518991791",
        "name": "Suguna Stores",
        "shop": "convenience"
      },
      "geometry": {
        "type": "Point",
        "coordinates": [
          78.1486384,
          9.9211657
        ]
      },
      "id": "node/518991791"
    },
    {
      "type": "Feature",
      "properties": {
        "@id": "node/519550433",
        "addr:city": "Basaveshwara Nagar, Bangalore",
        "name": "Fresh@Heritage",
        "shop": "convenience"
      },
      "geometry": {
        "type": "Point",
        "coordinates": [
          77.5403023,
          12.9974545
        ]
      },
      "id": "node/519550433"
    },
    {
      "type": "Feature",
      "properties": {
        "@id": "node/520091528",
        "name": "Fair and Fair",
        "shop": "convenience"
      },
      "geometry": {
        "type": "Point",
        "coordinates": [
          77.5317658,
          13.0361795
        ]
      },
      "id": "node/520091528"
    },
    {
      "type": "Feature",
      "properties": {
        "@id": "node/530720679",
        "shop": "convenience"
      },
      "geometry": {
        "type": "Point",
        "coordinates": [
          77.541656,
          12.9972514
        ]
      },
      "id": "node/530720679"
    },
    {
      "type": "Feature",
      "properties": {
        "@id": "node/538425771",
        "shop": "convenience"
      },
      "geometry": {
        "type": "Point",
        "coordinates": [
          78.4442984,
          17.4413894
        ]
      },
      "id": "node/538425771"
    },
    {
      "type": "Feature",
      "properties": {
        "@id": "node/539220453",
        "name": "Cotton Square",
        "shop": "convenience"
      },
      "geometry": {
        "type": "Point",
        "coordinates": [
          76.957642,
          8.5237944
        ]
      },
      "id": "node/539220453"
    },
    {
      "type": "Feature",
      "properties": {
        "@id": "node/546289570",
        "name": "Pushkar Sweets",
        "shop": "convenience"
      },
      "geometry": {
        "type": "Point",
        "coordinates": [
          73.9056346,
          18.5457564
        ]
      },
      "id": "node/546289570"
    },
    {
      "type": "Feature",
      "properties": {
        "@id": "node/546289574",
        "name": "Karachi Sweets",
        "shop": "convenience"
      },
      "geometry": {
        "type": "Point",
        "coordinates": [
          73.9055037,
          18.5457846
        ]
      },
      "id": "node/546289574"
    },
    {
      "type": "Feature",
      "properties": {
        "@id": "node/558696245",
        "name": "gurusamy",
        "opening_hours": "06:00-21:00",
        "shop": "convenience"
      },
      "geometry": {
        "type": "Point",
        "coordinates": [
          80.1382879,
          12.946453
        ]
      },
      "id": "node/558696245"
    },
    {
      "type": "Feature",
      "properties": {
        "@id": "node/560307778",
        "name": "raja",
        "shop": "convenience"
      },
      "geometry": {
        "type": "Point",
        "coordinates": [
          80.1393678,
          12.9458705
        ]
      },
      "id": "node/560307778"
    },
    {
      "type": "Feature",
      "properties": {
        "@id": "node/560603708",
        "name": "sowbhagya",
        "shop": "convenience"
      },
      "geometry": {
        "type": "Point",
        "coordinates": [
          80.1381655,
          12.9464778
        ]
      },
      "id": "node/560603708"
    },
    {
      "type": "Feature",
      "properties": {
        "@id": "node/560636412",
        "name": "sai baba",
        "shop": "convenience"
      },
      "geometry": {
        "type": "Point",
        "coordinates": [
          80.1382216,
          12.9460012
        ]
      },
      "id": "node/560636412"
    },
    {
      "type": "Feature",
      "properties": {
        "@id": "node/560687122",
        "name": "Matri Department Store",
        "shop": "convenience"
      },
      "geometry": {
        "type": "Point",
        "coordinates": [
          77.2018735,
          28.5390271
        ]
      },
      "id": "node/560687122"
    },
    {
      "type": "Feature",
      "properties": {
        "@id": "node/568364425",
        "shop": "convenience"
      },
      "geometry": {
        "type": "Point",
        "coordinates": [
          75.8598415,
          30.8450758
        ]
      },
      "id": "node/568364425"
    },
    {
      "type": "Feature",
      "properties": {
        "@id": "node/571591713",
        "name": "Central Market",
        "shop": "convenience"
      },
      "geometry": {
        "type": "Point",
        "coordinates": [
          77.3759993,
          28.6371575
        ]
      },
      "id": "node/571591713"
    },
    {
      "type": "Feature",
      "properties": {
        "@id": "node/574254132",
        "name": "HOPCOMS",
        "name:kn": "ಹಾಪ್ ಕಾಮ್ಸ್",
        "operator": "milk store",
        "shop": "convenience"
      },
      "geometry": {
        "type": "Point",
        "coordinates": [
          77.570496,
          13.00559
        ]
      },
      "id": "node/574254132"
    },
    {
      "type": "Feature",
      "properties": {
        "@id": "node/577329689",
        "name": "Mani General Stores",
        "shop": "convenience"
      },
      "geometry": {
        "type": "Point",
        "coordinates": [
          80.1601735,
          12.5084206
        ]
      },
      "id": "node/577329689"
    },
    {
      "type": "Feature",
      "properties": {
        "@id": "node/577332106",
        "name": "Selvam Stores",
        "shop": "convenience"
      },
      "geometry": {
        "type": "Point",
        "coordinates": [
          80.1564053,
          12.5062713
        ]
      },
      "id": "node/577332106"
    },
    {
      "type": "Feature",
      "properties": {
        "@id": "node/577332208",
        "name": "Ganesh Bakery",
        "shop": "convenience"
      },
      "geometry": {
        "type": "Point",
        "coordinates": [
          80.156341,
          12.5061037
        ]
      },
      "id": "node/577332208"
    },
    {
      "type": "Feature",
      "properties": {
        "@id": "node/577337265",
        "name": "Geetha Store",
        "shop": "convenience"
      },
      "geometry": {
        "type": "Point",
        "coordinates": [
          80.1553432,
          12.5039774
        ]
      },
      "id": "node/577337265"
    },
    {
      "type": "Feature",
      "properties": {
        "@id": "node/577511457",
        "name": "Atta Chakki",
        "shop": "convenience"
      },
      "geometry": {
        "type": "Point",
        "coordinates": [
          75.8648141,
          30.8458156
        ]
      },
      "id": "node/577511457"
    },
    {
      "type": "Feature",
      "properties": {
        "@id": "node/590753382",
        "name": "Baby Desire",
        "shop": "convenience"
      },
      "geometry": {
        "type": "Point",
        "coordinates": [
          77.6698353,
          12.9262764
        ]
      },
      "id": "node/590753382"
    },
    {
      "type": "Feature",
      "properties": {
        "@id": "node/612558725",
        "name": "Milk Booth",
        "operator": "Avin",
        "shop": "convenience"
      },
      "geometry": {
        "type": "Point",
        "coordinates": [
          80.2081295,
          13.0713909
        ]
      },
      "id": "node/612558725"
    },
    {
      "type": "Feature",
      "properties": {
        "@id": "node/613342447",
        "name": "Prithvi General Store",
        "shop": "convenience"
      },
      "geometry": {
        "type": "Point",
        "coordinates": [
          77.0631848,
          28.4565561
        ]
      },
      "id": "node/613342447"
    },
    {
      "type": "Feature",
      "properties": {
        "@id": "node/626897095",
        "name": "needs bakery",
        "shop": "convenience"
      },
      "geometry": {
        "type": "Point",
        "coordinates": [
          78.4878868,
          17.367503
        ]
      },
      "id": "node/626897095"
    },
    {
      "type": "Feature",
      "properties": {
        "@id": "node/626979052",
        "shop": "convenience"
      },
      "geometry": {
        "type": "Point",
        "coordinates": [
          77.0656493,
          31.2593552
        ]
      },
      "id": "node/626979052"
    },
    {
      "type": "Feature",
      "properties": {
        "@id": "node/631823296",
        "name": "Arihant Agency",
        "shop": "convenience"
      },
      "geometry": {
        "type": "Point",
        "coordinates": [
          72.5912229,
          23.0235904
        ]
      },
      "id": "node/631823296"
    },
    {
      "type": "Feature",
      "properties": {
        "@id": "node/639450444",
        "shop": "convenience"
      },
      "geometry": {
        "type": "Point",
        "coordinates": [
          77.5671642,
          13.0243423
        ]
      },
      "id": "node/639450444"
    },
    {
      "type": "Feature",
      "properties": {
        "@id": "node/653125697",
        "name": "Preethi Stores",
        "opening_hours": "Mo-Su 09:00-22:30",
        "shop": "convenience"
      },
      "geometry": {
        "type": "Point",
        "coordinates": [
          76.2421971,
          9.9658181
        ]
      },
      "id": "node/653125697"
    },
    {
      "type": "Feature",
      "properties": {
        "@id": "node/662741416",
        "shop": "convenience"
      },
      "geometry": {
        "type": "Point",
        "coordinates": [
          78.5525027,
          17.4863755
        ]
      },
      "id": "node/662741416"
    },
    {
      "type": "Feature",
      "properties": {
        "@id": "node/674066943",
        "name": "Sai Ganesh",
        "shop": "convenience"
      },
      "geometry": {
        "type": "Point",
        "coordinates": [
          80.1428033,
          17.2591768
        ]
      },
      "id": "node/674066943"
    },
    {
      "type": "Feature",
      "properties": {
        "@id": "node/674066983",
        "name": "Sai Shrinidhi",
        "phone": "9949297851",
        "shop": "convenience"
      },
      "geometry": {
        "type": "Point",
        "coordinates": [
          80.1604772,
          17.2539104
        ]
      },
      "id": "node/674066983"
    },
    {
      "type": "Feature",
      "properties": {
        "@id": "node/675642472",
        "name": "Heritage Fresh",
        "shop": "convenience"
      },
      "geometry": {
        "type": "Point",
        "coordinates": [
          78.4893816,
          17.4090882
        ]
      },
      "id": "node/675642472"
    },
    {
      "type": "Feature",
      "properties": {
        "@id": "node/699751451",
        "name": "Thakur General Store",
        "shop": "convenience"
      },
      "geometry": {
        "type": "Point",
        "coordinates": [
          76.7624646,
          32.0961813
        ]
      },
      "id": "node/699751451"
    },
    {
      "type": "Feature",
      "properties": {
        "@id": "node/712874689",
        "name": "Anand Supermart",
        "shop": "convenience"
      },
      "geometry": {
        "type": "Point",
        "coordinates": [
          77.1646775,
          28.509265
        ]
      },
      "id": "node/712874689"
    },
    {
      "type": "Feature",
      "properties": {
        "@id": "node/716227135",
        "shop": "convenience"
      },
      "geometry": {
        "type": "Point",
        "coordinates": [
          76.2925025,
          32.4355597
        ]
      },
      "id": "node/716227135"
    },
    {
      "type": "Feature",
      "properties": {
        "@id": "node/716227313",
        "name": "Aman General Store",
        "shop": "convenience"
      },
      "geometry": {
        "type": "Point",
        "coordinates": [
          76.3007174,
          32.4431625
        ]
      },
      "id": "node/716227313"
    },
    {
      "type": "Feature",
      "properties": {
        "@id": "node/717483940",
        "addr:street": "Pakabanda bazaar",
        "name": "Zee Super Market",
        "shop": "convenience"
      },
      "geometry": {
        "type": "Point",
        "coordinates": [
          80.148973,
          17.240893
        ]
      },
      "id": "node/717483940"
    },
    {
      "type": "Feature",
      "properties": {
        "@id": "node/725580770",
        "building": "yes",
        "name": "Students Amenities Centre",
        "opening_hours": "Mo-Fr 09:00-18:00",
        "shop": "convenience"
      },
      "geometry": {
        "type": "Point",
        "coordinates": [
          77.5504183,
          11.3139477
        ]
      },
      "id": "node/725580770"
    },
    {
      "type": "Feature",
      "properties": {
        "@id": "node/726209743",
        "shop": "convenience"
      },
      "geometry": {
        "type": "Point",
        "coordinates": [
          78.4709154,
          17.4073158
        ]
      },
      "id": "node/726209743"
    },
    {
      "type": "Feature",
      "properties": {
        "@id": "node/726658927",
        "addr:street": "Azad road",
        "name": "Pasha Kirana",
        "shop": "convenience"
      },
      "geometry": {
        "type": "Point",
        "coordinates": [
          80.148022,
          17.243514
        ]
      },
      "id": "node/726658927"
    },
    {
      "type": "Feature",
      "properties": {
        "@id": "node/726661041",
        "name": "Sinduja Kiranam",
        "shop": "convenience"
      },
      "geometry": {
        "type": "Point",
        "coordinates": [
          80.148249,
          17.243208
        ]
      },
      "id": "node/726661041"
    },
    {
      "type": "Feature",
      "properties": {
        "@id": "node/730877667",
        "name": "Sri Lakshmi",
        "name:te": "శ్రీలక్ష్మీ",
        "shop": "convenience"
      },
      "geometry": {
        "type": "Point",
        "coordinates": [
          80.148156,
          17.23288
        ]
      },
      "id": "node/730877667"
    },
    {
      "type": "Feature",
      "properties": {
        "@id": "node/731741251",
        "name": "Mamata",
        "shop": "convenience"
      },
      "geometry": {
        "type": "Point",
        "coordinates": [
          77.6164979,
          12.8762947
        ]
      },
      "id": "node/731741251"
    },
    {
      "type": "Feature",
      "properties": {
        "@id": "node/745591187",
        "name": "Vasavi Kiranam",
        "shop": "convenience"
      },
      "geometry": {
        "type": "Point",
        "coordinates": [
          80.139313,
          17.254212
        ]
      },
      "id": "node/745591187"
    },
    {
      "type": "Feature",
      "properties": {
        "@id": "node/746559493",
        "name": "Sweet City Bakery",
        "shop": "convenience"
      },
      "geometry": {
        "type": "Point",
        "coordinates": [
          77.6179121,
          12.8986161
        ]
      },
      "id": "node/746559493"
    },
    {
      "type": "Feature",
      "properties": {
        "@id": "node/772652568",
        "name": "Vishwa",
        "shop": "convenience"
      },
      "geometry": {
        "type": "Point",
        "coordinates": [
          80.14768,
          17.249447
        ]
      },
      "id": "node/772652568"
    },
    {
      "type": "Feature",
      "properties": {
        "@id": "node/774421391",
        "name": "Satrundi Shop",
        "seasonal": "summer",
        "shop": "convenience"
      },
      "geometry": {
        "type": "Point",
        "coordinates": [
          76.2186826,
          32.9908838
        ]
      },
      "id": "node/774421391"
    },
    {
      "type": "Feature",
      "properties": {
        "@id": "node/781086778",
        "name": "subhanallah",
        "shop": "convenience"
      },
      "geometry": {
        "type": "Point",
        "coordinates": [
          80.1491595,
          17.244358
        ]
      },
      "id": "node/781086778"
    },
    {
      "type": "Feature",
      "properties": {
        "@id": "node/786590792",
        "amenity": "fuel",
        "brand": "Bharat Petroleum",
        "shop": "convenience",
        "toilets": "yes"
      },
      "geometry": {
        "type": "Point",
        "coordinates": [
          77.2479091,
          28.5503207
        ]
      },
      "id": "node/786590792"
    },
    {
      "type": "Feature",
      "properties": {
        "@id": "node/789305635",
        "name": "Raju",
        "shop": "convenience"
      },
      "geometry": {
        "type": "Point",
        "coordinates": [
          80.1542329,
          17.2619669
        ]
      },
      "id": "node/789305635"
    },
    {
      "type": "Feature",
      "properties": {
        "@id": "node/791140519",
        "name": "Satyam kottu",
        "name:te": "సత్యం కొట్టు",
        "shop": "convenience"
      },
      "geometry": {
        "type": "Point",
        "coordinates": [
          80.2468145,
          17.025094
        ]
      },
      "id": "node/791140519"
    },
    {
      "type": "Feature",
      "properties": {
        "@id": "node/791140529",
        "name:te": "కిరాణా",
        "shop": "convenience"
      },
      "geometry": {
        "type": "Point",
        "coordinates": [
          80.2459879,
          17.0241076
        ]
      },
      "id": "node/791140529"
    },
    {
      "type": "Feature",
      "properties": {
        "@id": "node/798935461",
        "shop": "convenience"
      },
      "geometry": {
        "type": "Point",
        "coordinates": [
          80.1520121,
          17.2347314
        ]
      },
      "id": "node/798935461"
    },
    {
      "type": "Feature",
      "properties": {
        "@id": "node/810046383",
        "name": "Larje General Store",
        "shop": "convenience"
      },
      "geometry": {
        "type": "Point",
        "coordinates": [
          76.6956926,
          32.6842489
        ]
      },
      "id": "node/810046383"
    },
    {
      "type": "Feature",
      "properties": {
        "@id": "node/836369083",
        "name": "Srinivasa Hall",
        "name:kn": "ಶ್ರೀನಿವಾಸ ಸಭಾಂಗಣ",
        "shop": "convenience"
      },
      "geometry": {
        "type": "Point",
        "coordinates": [
          76.9418055,
          13.3091103
        ]
      },
      "id": "node/836369083"
    },
    {
      "type": "Feature",
      "properties": {
        "@id": "node/838980084",
        "name": "Kanakadurga",
        "shop": "convenience"
      },
      "geometry": {
        "type": "Point",
        "coordinates": [
          80.1411169,
          17.2353463
        ]
      },
      "id": "node/838980084"
    },
    {
      "type": "Feature",
      "properties": {
        "@id": "node/838980144",
        "shop": "convenience"
      },
      "geometry": {
        "type": "Point",
        "coordinates": [
          80.1396074,
          17.2316902
        ]
      },
      "id": "node/838980144"
    },
    {
      "type": "Feature",
      "properties": {
        "@id": "node/838980154",
        "name": "Haritha",
        "shop": "convenience"
      },
      "geometry": {
        "type": "Point",
        "coordinates": [
          80.1403419,
          17.2345522
        ]
      },
      "id": "node/838980154"
    },
    {
      "type": "Feature",
      "properties": {
        "@id": "node/838980182",
        "shop": "convenience"
      },
      "geometry": {
        "type": "Point",
        "coordinates": [
          80.1417992,
          17.2319537
        ]
      },
      "id": "node/838980182"
    },
    {
      "type": "Feature",
      "properties": {
        "@id": "node/838980280",
        "shop": "convenience"
      },
      "geometry": {
        "type": "Point",
        "coordinates": [
          80.1413631,
          17.2317105
        ]
      },
      "id": "node/838980280"
    },
    {
      "type": "Feature",
      "properties": {
        "@id": "node/838980294",
        "name": "Santosh",
        "shop": "convenience"
      },
      "geometry": {
        "type": "Point",
        "coordinates": [
          80.1408552,
          17.235311
        ]
      },
      "id": "node/838980294"
    },
    {
      "type": "Feature",
      "properties": {
        "@id": "node/838980307",
        "name": "aparna",
        "shop": "convenience"
      },
      "geometry": {
        "type": "Point",
        "coordinates": [
          80.1400771,
          17.2318027
        ]
      },
      "id": "node/838980307"
    },
    {
      "type": "Feature",
      "properties": {
        "@id": "node/838980311",
        "name": "srinivasa",
        "shop": "convenience"
      },
      "geometry": {
        "type": "Point",
        "coordinates": [
          80.1399717,
          17.2320237
        ]
      },
      "id": "node/838980311"
    },
    {
      "type": "Feature",
      "properties": {
        "@id": "node/838980332",
        "shop": "convenience"
      },
      "geometry": {
        "type": "Point",
        "coordinates": [
          80.139758,
          17.232129
        ]
      },
      "id": "node/838980332"
    },
    {
      "type": "Feature",
      "properties": {
        "@id": "node/840267155",
        "name": "venkateshwara",
        "shop": "convenience"
      },
      "geometry": {
        "type": "Point",
        "coordinates": [
          80.1603458,
          17.2629779
        ]
      },
      "id": "node/840267155"
    },
    {
      "type": "Feature",
      "properties": {
        "@id": "node/840267202",
        "shop": "convenience"
      },
      "geometry": {
        "type": "Point",
        "coordinates": [
          80.1594874,
          17.2625963
        ]
      },
      "id": "node/840267202"
    },
    {
      "type": "Feature",
      "properties": {
        "@id": "node/840378818",
        "shop": "convenience"
      },
      "geometry": {
        "type": "Point",
        "coordinates": [
          80.1626069,
          17.2620917
        ]
      },
      "id": "node/840378818"
    },
    {
      "type": "Feature",
      "properties": {
        "@id": "node/840378828",
        "shop": "convenience"
      },
      "geometry": {
        "type": "Point",
        "coordinates": [
          80.1612604,
          17.2627885
        ]
      },
      "id": "node/840378828"
    },
    {
      "type": "Feature",
      "properties": {
        "@id": "node/840378957",
        "shop": "convenience"
      },
      "geometry": {
        "type": "Point",
        "coordinates": [
          80.1616428,
          17.2634763
        ]
      },
      "id": "node/840378957"
    },
    {
      "type": "Feature",
      "properties": {
        "@id": "node/840379150",
        "shop": "convenience"
      },
      "geometry": {
        "type": "Point",
        "coordinates": [
          80.1622281,
          17.2624524
        ]
      },
      "id": "node/840379150"
    },
    {
      "type": "Feature",
      "properties": {
        "@id": "node/840379201",
        "name": "Govinda",
        "shop": "convenience"
      },
      "geometry": {
        "type": "Point",
        "coordinates": [
          80.1623666,
          17.2624084
        ]
      },
      "id": "node/840379201"
    },
    {
      "type": "Feature",
      "properties": {
        "@id": "node/848314990",
        "shop": "convenience"
      },
      "geometry": {
        "type": "Point",
        "coordinates": [
          76.8138798,
          32.3248246
        ]
      },
      "id": "node/848314990"
    },
    {
      "type": "Feature",
      "properties": {
        "@id": "node/871450728",
        "name": "Funky's Stuff",
        "name:en": "سوك الدجاج",
        "shop": "convenience"
      },
      "geometry": {
        "type": "Point",
        "coordinates": [
          73.8787061,
          18.5168375
        ]
      },
      "id": "node/871450728"
    },
    {
      "type": "Feature",
      "properties": {
        "@id": "node/871517225",
        "name": "Champion Sports",
        "shop": "convenience"
      },
      "geometry": {
        "type": "Point",
        "coordinates": [
          73.8062164,
          18.5534169
        ]
      },
      "id": "node/871517225"
    },
    {
      "type": "Feature",
      "properties": {
        "@id": "node/888520036",
        "name": "Reliance Fresh",
        "shop": "convenience"
      },
      "geometry": {
        "type": "Point",
        "coordinates": [
          78.4492268,
          17.4131832
        ]
      },
      "id": "node/888520036"
    },
    {
      "type": "Feature",
      "properties": {
        "@id": "node/913513624",
        "name": "Srinivasa",
        "shop": "convenience"
      },
      "geometry": {
        "type": "Point",
        "coordinates": [
          80.1323756,
          17.2500887
        ]
      },
      "id": "node/913513624"
    },
    {
      "type": "Feature",
      "properties": {
        "@id": "node/913519776",
        "name": "Jayalakshmi",
        "shop": "convenience"
      },
      "geometry": {
        "type": "Point",
        "coordinates": [
          80.1331456,
          17.2494375
        ]
      },
      "id": "node/913519776"
    },
    {
      "type": "Feature",
      "properties": {
        "@id": "node/916531813",
        "name": "Sati Kartar Store(Aata Chakki)",
        "shop": "convenience"
      },
      "geometry": {
        "type": "Point",
        "coordinates": [
          75.8642147,
          30.8530754
        ]
      },
      "id": "node/916531813"
    },
    {
      "type": "Feature",
      "properties": {
        "@id": "node/916539512",
        "name": "Fauji Cycle Works",
        "shop": "convenience"
      },
      "geometry": {
        "type": "Point",
        "coordinates": [
          75.8540326,
          30.8644143
        ]
      },
      "id": "node/916539512"
    },
    {
      "type": "Feature",
      "properties": {
        "@id": "node/916539525",
        "name": "Aircel Recharge Point",
        "shop": "convenience"
      },
      "geometry": {
        "type": "Point",
        "coordinates": [
          75.8539974,
          30.8637124
        ]
      },
      "id": "node/916539525"
    },
    {
      "type": "Feature",
      "properties": {
        "@id": "node/916550365",
        "name": "Darshan Karyana Store",
        "opening_hours": "07:00-22:00",
        "shop": "convenience"
      },
      "geometry": {
        "type": "Point",
        "coordinates": [
          75.8696605,
          30.9108852
        ]
      },
      "id": "node/916550365"
    },
    {
      "type": "Feature",
      "properties": {
        "@id": "node/917866057",
        "name": "R.K Confectionary(Mittal)",
        "shop": "convenience"
      },
      "geometry": {
        "type": "Point",
        "coordinates": [
          75.8711053,
          30.8701701
        ]
      },
      "id": "node/917866057"
    },
    {
      "type": "Feature",
      "properties": {
        "@id": "node/918072938",
        "name": "Karyana Store",
        "shop": "convenience"
      },
      "geometry": {
        "type": "Point",
        "coordinates": [
          75.8679211,
          30.8644656
        ]
      },
      "id": "node/918072938"
    },
    {
      "type": "Feature",
      "properties": {
        "@id": "node/918130347",
        "name": "Bedi General Store",
        "opening_hours": "Tu-Su 08:00-15:00;Sa 08:00-12:00",
        "shop": "convenience"
      },
      "geometry": {
        "type": "Point",
        "coordinates": [
          75.8606388,
          30.8659755
        ]
      },
      "id": "node/918130347"
    },
    {
      "type": "Feature",
      "properties": {
        "@id": "node/918130350",
        "name": "Gord Karyana Store",
        "opening_hours": "Tu-Su 08:00-15:00;Sa 08:00-12:00",
        "shop": "convenience"
      },
      "geometry": {
        "type": "Point",
        "coordinates": [
          75.8613085,
          30.866525
        ]
      },
      "id": "node/918130350"
    },
    {
      "type": "Feature",
      "properties": {
        "@id": "node/918309698",
        "name": "S.K. Genreal Karyana store",
        "shop": "convenience"
      },
      "geometry": {
        "type": "Point",
        "coordinates": [
          75.8666488,
          30.8633733
        ]
      },
      "id": "node/918309698"
    },
    {
      "type": "Feature",
      "properties": {
        "@id": "node/918309749",
        "name": "Dhot Karyana Store",
        "shop": "convenience"
      },
      "geometry": {
        "type": "Point",
        "coordinates": [
          75.8665767,
          30.8614767
        ]
      },
      "id": "node/918309749"
    },
    {
      "type": "Feature",
      "properties": {
        "@id": "node/918309759",
        "name": "Alena Herbal hair oil",
        "shop": "convenience"
      },
      "geometry": {
        "type": "Point",
        "coordinates": [
          75.8666654,
          30.8637412
        ]
      },
      "id": "node/918309759"
    },
    {
      "type": "Feature",
      "properties": {
        "@id": "node/918309761",
        "name": "Gaurav Malhotra Karyana Store",
        "shop": "convenience"
      },
      "geometry": {
        "type": "Point",
        "coordinates": [
          75.8666545,
          30.8622401
        ]
      },
      "id": "node/918309761"
    },
    {
      "type": "Feature",
      "properties": {
        "@id": "node/918309770",
        "name": "Vicky Karyana Store",
        "shop": "convenience"
      },
      "geometry": {
        "type": "Point",
        "coordinates": [
          75.8674694,
          30.8657118
        ]
      },
      "id": "node/918309770"
    },
    {
      "type": "Feature",
      "properties": {
        "@id": "node/918309791",
        "name": "Nischal General store",
        "shop": "convenience"
      },
      "geometry": {
        "type": "Point",
        "coordinates": [
          75.8666628,
          30.8636099
        ]
      },
      "id": "node/918309791"
    },
    {
      "type": "Feature",
      "properties": {
        "@id": "node/918309797",
        "name": "Babbi general provision store",
        "shop": "convenience"
      },
      "geometry": {
        "type": "Point",
        "coordinates": [
          75.8666589,
          30.8635684
        ]
      },
      "id": "node/918309797"
    },
    {
      "type": "Feature",
      "properties": {
        "@id": "node/918309837",
        "name": "Sanjay Karyana store",
        "shop": "convenience"
      },
      "geometry": {
        "type": "Point",
        "coordinates": [
          75.8688987,
          30.8656767
        ]
      },
      "id": "node/918309837"
    },
    {
      "type": "Feature",
      "properties": {
        "@id": "node/918309860",
        "name": "Guru Nanak general Store",
        "shop": "convenience"
      },
      "geometry": {
        "type": "Point",
        "coordinates": [
          75.8692334,
          30.8657003
        ]
      },
      "id": "node/918309860"
    },
    {
      "type": "Feature",
      "properties": {
        "@id": "node/918355979",
        "name": "Prakash Sweet Shop",
        "shop": "convenience"
      },
      "geometry": {
        "type": "Point",
        "coordinates": [
          75.8805218,
          30.8618878
        ]
      },
      "id": "node/918355979"
    },
    {
      "type": "Feature",
      "properties": {
        "@id": "node/918520885",
        "name": "Goyal Karyana Store",
        "opening_hours": "Mo-Fr 08:30-20:00",
        "shop": "convenience"
      },
      "geometry": {
        "type": "Point",
        "coordinates": [
          75.8623403,
          30.8658062
        ]
      },
      "id": "node/918520885"
    },
    {
      "type": "Feature",
      "properties": {
        "@id": "node/918520921",
        "name": "Channa Daily Need Shop",
        "opening_hours": "Mo-Fr 08:30-20:00",
        "shop": "convenience"
      },
      "geometry": {
        "type": "Point",
        "coordinates": [
          75.8625233,
          30.8675094
        ]
      },
      "id": "node/918520921"
    },
    {
      "type": "Feature",
      "properties": {
        "@id": "node/918520922",
        "name": "General Store",
        "opening_hours": "Tu-Su 08:00-15:00;Sa 08:00-12:00",
        "shop": "convenience"
      },
      "geometry": {
        "type": "Point",
        "coordinates": [
          75.8617341,
          30.8664023
        ]
      },
      "id": "node/918520922"
    },
    {
      "type": "Feature",
      "properties": {
        "@id": "node/918520928",
        "name": "Happy General Store & Gift Gallery",
        "opening_hours": "Mo-Fr 08:30-20:00",
        "shop": "convenience"
      },
      "geometry": {
        "type": "Point",
        "coordinates": [
          75.8625035,
          30.8658652
        ]
      },
      "id": "node/918520928"
    },
    {
      "type": "Feature",
      "properties": {
        "@id": "node/918520950",
        "name": "Bansal Karyana Store",
        "opening_hours": "Mo-Fr 08:30-20:00",
        "shop": "convenience"
      },
      "geometry": {
        "type": "Point",
        "coordinates": [
          75.8620682,
          30.8657903
        ]
      },
      "id": "node/918520950"
    },
    {
      "type": "Feature",
      "properties": {
        "@id": "node/918520962",
        "name": "Taneja General Store",
        "opening_hours": "Mo-Fr 08:30-20:00",
        "shop": "convenience"
      },
      "geometry": {
        "type": "Point",
        "coordinates": [
          75.8624344,
          30.8658517
        ]
      },
      "id": "node/918520962"
    },
    {
      "type": "Feature",
      "properties": {
        "@id": "node/918520966",
        "name": "Rajindra General Store",
        "opening_hours": "Mo-Fr 08:30-20:00",
        "shop": "convenience"
      },
      "geometry": {
        "type": "Point",
        "coordinates": [
          75.8626397,
          30.8658679
        ]
      },
      "id": "node/918520966"
    },
    {
      "type": "Feature",
      "properties": {
        "@id": "node/918520981",
        "name": "Rahul Confectionary & Karyana Store",
        "opening_hours": "Mo-Fr 08:30-20:00",
        "shop": "convenience"
      },
      "geometry": {
        "type": "Point",
        "coordinates": [
          75.8623809,
          30.8659456
        ]
      },
      "id": "node/918520981"
    },
    {
      "type": "Feature",
      "properties": {
        "@id": "node/918521022",
        "name": "Shankar Karyana Store",
        "opening_hours": "Mo-Fr 08:30-20:00",
        "shop": "convenience"
      },
      "geometry": {
        "type": "Point",
        "coordinates": [
          75.8624605,
          30.8670722
        ]
      },
      "id": "node/918521022"
    },
    {
      "type": "Feature",
      "properties": {
        "@id": "node/918521149",
        "name": "Kaka Karyana Store",
        "opening_hours": "Mo-Fr 08:30-20:00",
        "shop": "convenience"
      },
      "geometry": {
        "type": "Point",
        "coordinates": [
          75.8624596,
          30.8674143
        ]
      },
      "id": "node/918521149"
    },
    {
      "type": "Feature",
      "properties": {
        "@id": "node/918783067",
        "name": "GURU NANAK Building Store",
        "shop": "convenience"
      },
      "geometry": {
        "type": "Point",
        "coordinates": [
          75.8807133,
          30.850888
        ]
      },
      "id": "node/918783067"
    },
    {
      "type": "Feature",
      "properties": {
        "@id": "node/919380757",
        "name": "Fauji Karyana Store",
        "shop": "convenience"
      },
      "geometry": {
        "type": "Point",
        "coordinates": [
          75.8867259,
          30.8555563
        ]
      },
      "id": "node/919380757"
    },
    {
      "type": "Feature",
      "properties": {
        "@id": "node/919383399",
        "name": "Satpal Karyana Store",
        "shop": "convenience"
      },
      "geometry": {
        "type": "Point",
        "coordinates": [
          75.8796119,
          30.8554773
        ]
      },
      "id": "node/919383399"
    },
    {
      "type": "Feature",
      "properties": {
        "@id": "node/919384932",
        "name": "Avtaar Atta Chakki",
        "shop": "convenience"
      },
      "geometry": {
        "type": "Point",
        "coordinates": [
          75.8787176,
          30.8554728
        ]
      },
      "id": "node/919384932"
    },
    {
      "type": "Feature",
      "properties": {
        "@id": "node/919388680",
        "name": "Madan Karyana Store",
        "shop": "convenience"
      },
      "geometry": {
        "type": "Point",
        "coordinates": [
          75.8722209,
          30.8565104
        ]
      },
      "id": "node/919388680"
    },
    {
      "type": "Feature",
      "properties": {
        "@id": "node/919469916",
        "name": "Jain Karyana Store",
        "shop": "convenience"
      },
      "geometry": {
        "type": "Point",
        "coordinates": [
          75.8847887,
          30.8588106
        ]
      },
      "id": "node/919469916"
    },
    {
      "type": "Feature",
      "properties": {
        "@id": "node/919471763",
        "name": "Fauji Karyana Store",
        "shop": "convenience"
      },
      "geometry": {
        "type": "Point",
        "coordinates": [
          75.8866964,
          30.855568
        ]
      },
      "id": "node/919471763"
    },
    {
      "type": "Feature",
      "properties": {
        "@id": "node/919473962",
        "name": "Satpal Karyana Store",
        "shop": "convenience"
      },
      "geometry": {
        "type": "Point",
        "coordinates": [
          75.8796152,
          30.8554749
        ]
      },
      "id": "node/919473962"
    },
    {
      "type": "Feature",
      "properties": {
        "@id": "node/919473965",
        "name": "Avtar Atta Chakki",
        "shop": "convenience"
      },
      "geometry": {
        "type": "Point",
        "coordinates": [
          75.8787126,
          30.85547
        ]
      },
      "id": "node/919473965"
    },
    {
      "type": "Feature",
      "properties": {
        "@id": "node/919477351",
        "name": "Madan Karyana Store",
        "shop": "convenience"
      },
      "geometry": {
        "type": "Point",
        "coordinates": [
          75.8722193,
          30.8565146
        ]
      },
      "id": "node/919477351"
    },
    {
      "type": "Feature",
      "properties": {
        "@id": "node/919601739",
        "name": "Aggarwal Karyana Store",
        "opening_hours": "Mo-Fr 08:30-20:00",
        "shop": "convenience"
      },
      "geometry": {
        "type": "Point",
        "coordinates": [
          75.8636273,
          30.8658786
        ]
      },
      "id": "node/919601739"
    },
    {
      "type": "Feature",
      "properties": {
        "@id": "node/919601743",
        "name": "Kuku General & Soft Shopes",
        "opening_hours": "Mo-Fr 08:30-20:00",
        "shop": "convenience"
      },
      "geometry": {
        "type": "Point",
        "coordinates": [
          75.865379,
          30.8702682
        ]
      },
      "id": "node/919601743"
    },
    {
      "type": "Feature",
      "properties": {
        "@id": "node/919601776",
        "name": "Dalip Doshi Bartan House",
        "opening_hours": "Mo-Fr 08:30-20:00",
        "shop": "convenience"
      },
      "geometry": {
        "type": "Point",
        "coordinates": [
          75.8667032,
          30.8658225
        ]
      },
      "id": "node/919601776"
    },
    {
      "type": "Feature",
      "properties": {
        "@id": "node/919601821",
        "name": "Taneja Sanitary Store",
        "opening_hours": "Mo-Fr 08:30-20:00",
        "shop": "convenience"
      },
      "geometry": {
        "type": "Point",
        "coordinates": [
          75.8645541,
          30.8657981
        ]
      },
      "id": "node/919601821"
    },
    {
      "type": "Feature",
      "properties": {
        "@id": "node/919601830",
        "name": "Gupta Karyana Store",
        "opening_hours": "Mo-Fr 08:30-20:00",
        "shop": "convenience"
      },
      "geometry": {
        "type": "Point",
        "coordinates": [
          75.8638983,
          30.8703363
        ]
      },
      "id": "node/919601830"
    },
    {
      "type": "Feature",
      "properties": {
        "@id": "node/919605083",
        "name": "Panesar Sanitary Store",
        "opening_hours": "Mo-Fr 08:30-20:00",
        "shop": "convenience"
      },
      "geometry": {
        "type": "Point",
        "coordinates": [
          75.8593118,
          30.8698908
        ]
      },
      "id": "node/919605083"
    },
    {
      "type": "Feature",
      "properties": {
        "@id": "node/919687903",
        "name": "Maya Karyana Store",
        "opening_hours": "Mo-Fr 08:30-20:00",
        "shop": "convenience"
      },
      "geometry": {
        "type": "Point",
        "coordinates": [
          75.859276,
          30.8686218
        ]
      },
      "id": "node/919687903"
    },
    {
      "type": "Feature",
      "properties": {
        "@id": "node/919687924",
        "name": "Garg Provision Store",
        "opening_hours": "Mo-Fr 08:30-20:00",
        "shop": "convenience"
      },
      "geometry": {
        "type": "Point",
        "coordinates": [
          75.8592978,
          30.8677293
        ]
      },
      "id": "node/919687924"
    },
    {
      "type": "Feature",
      "properties": {
        "@id": "node/919687931",
        "name": "Sunny Bhujia Bhandar",
        "opening_hours": "Mo-Fr 08:30-20:00",
        "shop": "convenience"
      },
      "geometry": {
        "type": "Point",
        "coordinates": [
          75.8592707,
          30.868349
        ]
      },
      "id": "node/919687931"
    },
    {
      "type": "Feature",
      "properties": {
        "@id": "node/919687932",
        "name": "Jaswant Karyana Store",
        "opening_hours": "Mo-Fr 08:30-20:00",
        "shop": "convenience"
      },
      "geometry": {
        "type": "Point",
        "coordinates": [
          75.8593004,
          30.8676163
        ]
      },
      "id": "node/919687932"
    },
    {
      "type": "Feature",
      "properties": {
        "@id": "node/920569013",
        "name": "Lakshmi Narasimha",
        "shop": "convenience"
      },
      "geometry": {
        "type": "Point",
        "coordinates": [
          80.1496304,
          17.2297999
        ]
      },
      "id": "node/920569013"
    },
    {
      "type": "Feature",
      "properties": {
        "@id": "node/921079386",
        "name": "C'not series",
        "shop": "convenience"
      },
      "geometry": {
        "type": "Point",
        "coordinates": [
          75.5911401,
          28.3564666
        ]
      },
      "id": "node/921079386"
    },
    {
      "type": "Feature",
      "properties": {
        "@id": "node/926685122",
        "name": "Nurboo Shop",
        "shop": "convenience"
      },
      "geometry": {
        "type": "Point",
        "coordinates": [
          77.1442542,
          33.2347065
        ]
      },
      "id": "node/926685122"
    },
    {
      "type": "Feature",
      "properties": {
        "@id": "node/928479050",
        "name": "private dairy",
        "opening_hours": "05:00-07:00,17:00-19:00",
        "shop": "convenience"
      },
      "geometry": {
        "type": "Point",
        "coordinates": [
          75.9517958,
          30.6801445
        ]
      },
      "id": "node/928479050"
    },
    {
      "type": "Feature",
      "properties": {
        "@id": "node/928479090",
        "name": "Govt. Verka milk Dairy",
        "opening_hours": "05:00-07:00,17:00-19:00",
        "shop": "convenience"
      },
      "geometry": {
        "type": "Point",
        "coordinates": [
          75.9524274,
          30.6790077
        ]
      },
      "id": "node/928479090"
    },
    {
      "type": "Feature",
      "properties": {
        "@id": "node/929000905",
        "name": "Ishwar confectionery",
        "shop": "convenience"
      },
      "geometry": {
        "type": "Point",
        "coordinates": [
          75.945435,
          30.727017
        ]
      },
      "id": "node/929000905"
    },
    {
      "type": "Feature",
      "properties": {
        "@id": "node/929027941",
        "name": "ice cream shop",
        "shop": "convenience"
      },
      "geometry": {
        "type": "Point",
        "coordinates": [
          75.944357,
          30.7277877
        ]
      },
      "id": "node/929027941"
    },
    {
      "type": "Feature",
      "properties": {
        "@id": "node/934826088",
        "name": "Khanna Departmental Store",
        "shop": "convenience"
      },
      "geometry": {
        "type": "Point",
        "coordinates": [
          75.8397915,
          30.8660274
        ]
      },
      "id": "node/934826088"
    },
    {
      "type": "Feature",
      "properties": {
        "@id": "node/937897929",
        "name": "Sarkaari Rashan  Depot",
        "shop": "convenience"
      },
      "geometry": {
        "type": "Point",
        "coordinates": [
          75.8355937,
          30.8751971
        ]
      },
      "id": "node/937897929"
    },
    {
      "type": "Feature",
      "properties": {
        "@id": "node/945711987",
        "name": "RK",
        "shop": "convenience"
      },
      "geometry": {
        "type": "Point",
        "coordinates": [
          80.143697,
          17.2465297
        ]
      },
      "id": "node/945711987"
    },
    {
      "type": "Feature",
      "properties": {
        "@id": "node/945711989",
        "name": "K Harish",
        "shop": "convenience"
      },
      "geometry": {
        "type": "Point",
        "coordinates": [
          80.1433878,
          17.2468631
        ]
      },
      "id": "node/945711989"
    },
    {
      "type": "Feature",
      "properties": {
        "@id": "node/947964490",
        "name": "Dhamija General Store",
        "shop": "convenience"
      },
      "geometry": {
        "type": "Point",
        "coordinates": [
          75.8671719,
          30.8656817
        ]
      },
      "id": "node/947964490"
    },
    {
      "type": "Feature",
      "properties": {
        "@id": "node/949915248",
        "name": "Banwari Karyana and Sweet Shop",
        "shop": "convenience"
      },
      "geometry": {
        "type": "Point",
        "coordinates": [
          75.8458451,
          30.8767462
        ]
      },
      "id": "node/949915248"
    },
    {
      "type": "Feature",
      "properties": {
        "@id": "node/949933118",
        "name": "Kartar Confectionary",
        "shop": "convenience"
      },
      "geometry": {
        "type": "Point",
        "coordinates": [
          75.8361317,
          30.8760813
        ]
      },
      "id": "node/949933118"
    },
    {
      "type": "Feature",
      "properties": {
        "@id": "node/951468562",
        "addr:street": "80 Feet Road Girinagar",
        "name": "Nilgiris Store",
        "shop": "convenience"
      },
      "geometry": {
        "type": "Point",
        "coordinates": [
          77.542039,
          12.9410374
        ]
      },
      "id": "node/951468562"
    },
    {
      "type": "Feature",
      "properties": {
        "@id": "node/954308720",
        "shop": "convenience"
      },
      "geometry": {
        "type": "Point",
        "coordinates": [
          77.7183726,
          12.9856478
        ]
      },
      "id": "node/954308720"
    },
    {
      "type": "Feature",
      "properties": {
        "@id": "node/956394098",
        "name": "Enzo",
        "shop": "convenience"
      },
      "geometry": {
        "type": "Point",
        "coordinates": [
          79.1588679,
          12.9724576
        ]
      },
      "id": "node/956394098"
    },
    {
      "type": "Feature",
      "properties": {
        "@id": "node/980057175",
        "shop": "convenience"
      },
      "geometry": {
        "type": "Point",
        "coordinates": [
          94.9129424,
          27.181239
        ]
      },
      "id": "node/980057175"
    },
    {
      "type": "Feature",
      "properties": {
        "@id": "node/983259388",
        "name": "Amul",
        "shop": "convenience"
      },
      "geometry": {
        "type": "Point",
        "coordinates": [
          91.7930894,
          26.1342576
        ]
      },
      "id": "node/983259388"
    },
    {
      "type": "Feature",
      "properties": {
        "@id": "node/984287744",
        "name": "Food Bazar",
        "shop": "convenience"
      },
      "geometry": {
        "type": "Point",
        "coordinates": [
          72.8564354,
          19.1548114
        ]
      },
      "id": "node/984287744"
    },
    {
      "type": "Feature",
      "properties": {
        "@id": "node/986744078",
        "addr:street": "GM Palya Main Road",
        "name": "Heritage Fresh",
        "shop": "convenience"
      },
      "geometry": {
        "type": "Point",
        "coordinates": [
          77.678774,
          12.972735
        ]
      },
      "id": "node/986744078"
    },
    {
      "type": "Feature",
      "properties": {
        "@id": "node/1011184850",
        "addr:street": "Pashan-Sus Road",
        "name": "Ram Dev Store",
        "shop": "convenience"
      },
      "geometry": {
        "type": "Point",
        "coordinates": [
          73.7858854,
          18.543612
        ]
      },
      "id": "node/1011184850"
    },
    {
      "type": "Feature",
      "properties": {
        "@id": "node/1011184944",
        "name": "Goel Market",
        "shop": "convenience"
      },
      "geometry": {
        "type": "Point",
        "coordinates": [
          73.7957221,
          18.5370513
        ]
      },
      "id": "node/1011184944"
    },
    {
      "type": "Feature",
      "properties": {
        "@id": "node/1018359163",
        "shop": "convenience"
      },
      "geometry": {
        "type": "Point",
        "coordinates": [
          80.2537868,
          13.0293339
        ]
      },
      "id": "node/1018359163"
    },
    {
      "type": "Feature",
      "properties": {
        "@id": "node/1024711897",
        "name": "Pour Tous",
        "shop": "convenience"
      },
      "geometry": {
        "type": "Point",
        "coordinates": [
          79.8104399,
          12.0014609
        ]
      },
      "id": "node/1024711897"
    },
    {
      "type": "Feature",
      "properties": {
        "@id": "node/1048034648",
        "name": "Fresh and Natural",
        "shop": "convenience"
      },
      "geometry": {
        "type": "Point",
        "coordinates": [
          78.3671227,
          17.4536406
        ]
      },
      "id": "node/1048034648"
    },
    {
      "type": "Feature",
      "properties": {
        "@id": "node/1056702145",
        "name": "Sarvodaya",
        "shop": "convenience"
      },
      "geometry": {
        "type": "Point",
        "coordinates": [
          72.8270064,
          18.9334183
        ]
      },
      "id": "node/1056702145"
    },
    {
      "type": "Feature",
      "properties": {
        "@id": "node/1065038301",
        "name": "Ashapura Stationery",
        "shop": "convenience"
      },
      "geometry": {
        "type": "Point",
        "coordinates": [
          73.7829196,
          18.5442452
        ]
      },
      "id": "node/1065038301"
    },
    {
      "type": "Feature",
      "properties": {
        "@id": "node/1074852415",
        "name": "Artfull Homes",
        "shop": "convenience"
      },
      "geometry": {
        "type": "Point",
        "coordinates": [
          76.9851591,
          11.0125461
        ]
      },
      "id": "node/1074852415"
    },
    {
      "type": "Feature",
      "properties": {
        "@id": "node/1078235338",
        "addr:street": "Kaggadasspura Main Road",
        "name": "Cosmos",
        "shop": "convenience"
      },
      "geometry": {
        "type": "Point",
        "coordinates": [
          77.6716822,
          12.9851708
        ]
      },
      "id": "node/1078235338"
    },
    {
      "type": "Feature",
      "properties": {
        "@id": "node/1088288503",
        "name": "RPS Convenience Store",
        "shop": "convenience"
      },
      "geometry": {
        "type": "Point",
        "coordinates": [
          76.7578652,
          9.7019878
        ]
      },
      "id": "node/1088288503"
    },
    {
      "type": "Feature",
      "properties": {
        "@id": "node/1103158088",
        "name": "Safal Daily Fresh",
        "shop": "convenience"
      },
      "geometry": {
        "type": "Point",
        "coordinates": [
          77.759175,
          13.0376809
        ]
      },
      "id": "node/1103158088"
    },
    {
      "type": "Feature",
      "properties": {
        "@id": "node/1107998748",
        "name": "Mamatha Departmental Store",
        "shop": "convenience"
      },
      "geometry": {
        "type": "Point",
        "coordinates": [
          77.5417077,
          12.9673129
        ]
      },
      "id": "node/1107998748"
    },
    {
      "type": "Feature",
      "properties": {
        "@id": "node/1108046797",
        "name": "Vodafone",
        "name:kn": "ವೋಡಫೋನ್",
        "shop": "convenience"
      },
      "geometry": {
        "type": "Point",
        "coordinates": [
          77.5428831,
          12.9671974
        ]
      },
      "id": "node/1108046797"
    },
    {
      "type": "Feature",
      "properties": {
        "@id": "node/1108055614",
        "name": "Seetha General Store",
        "shop": "convenience"
      },
      "geometry": {
        "type": "Point",
        "coordinates": [
          77.5425508,
          12.9673076
        ]
      },
      "id": "node/1108055614"
    },
    {
      "type": "Feature",
      "properties": {
        "@id": "node/1133862167",
        "name": "Ravi's Shop",
        "phone": "08276321599",
        "shop": "convenience"
      },
      "geometry": {
        "type": "Point",
        "coordinates": [
          75.8008048,
          12.4368018
        ]
      },
      "id": "node/1133862167"
    },
    {
      "type": "Feature",
      "properties": {
        "@id": "node/1135148535",
        "shop": "convenience"
      },
      "geometry": {
        "type": "Point",
        "coordinates": [
          77.2441405,
          28.5468405
        ]
      },
      "id": "node/1135148535"
    },
    {
      "type": "Feature",
      "properties": {
        "@id": "node/1135501498",
        "name": "Ration Shop",
        "shop": "convenience"
      },
      "geometry": {
        "type": "Point",
        "coordinates": [
          76.7615541,
          9.7086648
        ]
      },
      "id": "node/1135501498"
    },
    {
      "type": "Feature",
      "properties": {
        "@id": "node/1147024144",
        "name": "Bharatamma Kiranam",
        "shop": "convenience"
      },
      "geometry": {
        "type": "Point",
        "coordinates": [
          80.1421628,
          17.2482778
        ]
      },
      "id": "node/1147024144"
    },
    {
      "type": "Feature",
      "properties": {
        "@id": "node/1150839607",
        "addr:street": "Varthur Road",
        "name": "Happy Mart",
        "shop": "convenience"
      },
      "geometry": {
        "type": "Point",
        "coordinates": [
          77.698972,
          12.956906
        ]
      },
      "id": "node/1150839607"
    },
    {
      "type": "Feature",
      "properties": {
        "@id": "node/1153092210",
        "name": "Manoj Vihar",
        "shop": "convenience"
      },
      "geometry": {
        "type": "Point",
        "coordinates": [
          77.3780646,
          28.6419902
        ]
      },
      "id": "node/1153092210"
    },
    {
      "type": "Feature",
      "properties": {
        "@id": "node/1154438852",
        "brand": "Ration Shop",
        "brand:wikidata": "Q60901",
        "brand:wikipedia": "en:Public distribution system",
        "name": "Ration Shop",
        "operator": "Public Distribution System",
        "operator:type": "public",
        "operator:wikidata": "Q60901",
        "operator:wikipedia": "en:Public distribution system",
        "shop": "convenience"
      },
      "geometry": {
        "type": "Point",
        "coordinates": [
          76.7577879,
          9.7005225
        ]
      },
      "id": "node/1154438852"
    },
    {
      "type": "Feature",
      "properties": {
        "@id": "node/1157203164",
        "name": "Big Apple",
        "shop": "convenience"
      },
      "geometry": {
        "type": "Point",
        "coordinates": [
          77.1774672,
          28.6324664
        ]
      },
      "id": "node/1157203164"
    },
    {
      "type": "Feature",
      "properties": {
        "@id": "node/1166275817",
        "shop": "convenience"
      },
      "geometry": {
        "type": "Point",
        "coordinates": [
          77.7023418,
          12.9897305
        ]
      },
      "id": "node/1166275817"
    },
    {
      "type": "Feature",
      "properties": {
        "@id": "node/1184053493",
        "name": "Ration Shop ARD Number 27, Bharananganam",
        "shop": "convenience"
      },
      "geometry": {
        "type": "Point",
        "coordinates": [
          76.7285737,
          9.6991701
        ]
      },
      "id": "node/1184053493"
    },
    {
      "type": "Feature",
      "properties": {
        "@id": "node/1212970684",
        "addr:city": "Bharananganam",
        "addr:street": "Ettumanoor - Erattupetta - Poonjar Road",
        "name": "Mini Style",
        "shop": "convenience"
      },
      "geometry": {
        "type": "Point",
        "coordinates": [
          76.7278027,
          9.6999153
        ]
      },
      "id": "node/1212970684"
    },
    {
      "type": "Feature",
      "properties": {
        "@id": "node/1215719678",
        "shop": "convenience"
      },
      "geometry": {
        "type": "Point",
        "coordinates": [
          80.1489273,
          17.2462669
        ]
      },
      "id": "node/1215719678"
    },
    {
      "type": "Feature",
      "properties": {
        "@id": "node/1215747410",
        "name": "China Bazaar",
        "shop": "convenience"
      },
      "geometry": {
        "type": "Point",
        "coordinates": [
          78.3671039,
          17.4645969
        ]
      },
      "id": "node/1215747410"
    },
    {
      "type": "Feature",
      "properties": {
        "@id": "node/1215774390",
        "shop": "convenience"
      },
      "geometry": {
        "type": "Point",
        "coordinates": [
          78.3643595,
          17.4653229
        ]
      },
      "id": "node/1215774390"
    },
    {
      "type": "Feature",
      "properties": {
        "@id": "node/1224549902",
        "name": "Spencers",
        "shop": "convenience"
      },
      "geometry": {
        "type": "Point",
        "coordinates": [
          78.3589602,
          17.4412514
        ]
      },
      "id": "node/1224549902"
    },
    {
      "type": "Feature",
      "properties": {
        "@id": "node/1237503115",
        "addr:street": "Kannamba Junction",
        "name": "Small Convenience Store",
        "shop": "convenience"
      },
      "geometry": {
        "type": "Point",
        "coordinates": [
          76.71905,
          8.7522175
        ]
      },
      "id": "node/1237503115"
    },
    {
      "type": "Feature",
      "properties": {
        "@id": "node/1273238615",
        "addr:postcode": "831001",
        "name": "In & Out",
        "shop": "convenience"
      },
      "geometry": {
        "type": "Point",
        "coordinates": [
          86.184504,
          22.797106
        ]
      },
      "id": "node/1273238615"
    },
    {
      "type": "Feature",
      "properties": {
        "@id": "node/1290107600",
        "shop": "convenience"
      },
      "geometry": {
        "type": "Point",
        "coordinates": [
          77.564002,
          13.0077909
        ]
      },
      "id": "node/1290107600"
    },
    {
      "type": "Feature",
      "properties": {
        "@id": "node/1290107610",
        "shop": "convenience"
      },
      "geometry": {
        "type": "Point",
        "coordinates": [
          77.5639866,
          13.0078203
        ]
      },
      "id": "node/1290107610"
    },
    {
      "type": "Feature",
      "properties": {
        "@id": "node/1290125200",
        "shop": "convenience"
      },
      "geometry": {
        "type": "Point",
        "coordinates": [
          77.5644724,
          13.0069619
        ]
      },
      "id": "node/1290125200"
    },
    {
      "type": "Feature",
      "properties": {
        "@id": "node/1290125226",
        "shop": "convenience"
      },
      "geometry": {
        "type": "Point",
        "coordinates": [
          77.5653254,
          13.0038729
        ]
      },
      "id": "node/1290125226"
    },
    {
      "type": "Feature",
      "properties": {
        "@id": "node/1290152830",
        "shop": "convenience"
      },
      "geometry": {
        "type": "Point",
        "coordinates": [
          77.5692346,
          12.9986733
        ]
      },
      "id": "node/1290152830"
    },
    {
      "type": "Feature",
      "properties": {
        "@id": "node/1294548896",
        "addr:postcode": "631502",
        "addr:street": "Apparao Street",
        "amenity": "temple",
        "location": "Jawaharlal /Big Kamala Street",
        "name": "Mohan Store;Pillayar Temple",
        "religion": "hindu",
        "shop": "convenience"
      },
      "geometry": {
        "type": "Point",
        "coordinates": [
          79.7068353,
          12.8444842
        ]
      },
      "id": "node/1294548896"
    },
    {
      "type": "Feature",
      "properties": {
        "@id": "node/1296947189",
        "addr:city": "Vijay Nagar, Kanpur",
        "name": "Seema Provision and General Store",
        "shop": "convenience"
      },
      "geometry": {
        "type": "Point",
        "coordinates": [
          80.2931966,
          26.4652985
        ]
      },
      "id": "node/1296947189"
    },
    {
      "type": "Feature",
      "properties": {
        "@id": "node/1300883737",
        "shop": "convenience"
      },
      "geometry": {
        "type": "Point",
        "coordinates": [
          77.7307851,
          28.9738239
        ]
      },
      "id": "node/1300883737"
    },
    {
      "type": "Feature",
      "properties": {
        "@id": "node/1300884536",
        "shop": "convenience"
      },
      "geometry": {
        "type": "Point",
        "coordinates": [
          77.7293152,
          28.9754923
        ]
      },
      "id": "node/1300884536"
    },
    {
      "type": "Feature",
      "properties": {
        "@id": "node/1305056479",
        "operator": "Khade Floor Mill",
        "shop": "convenience"
      },
      "geometry": {
        "type": "Point",
        "coordinates": [
          73.8157346,
          18.475333
        ]
      },
      "id": "node/1305056479"
    },
    {
      "type": "Feature",
      "properties": {
        "@id": "node/1328610606",
        "shop": "convenience"
      },
      "geometry": {
        "type": "Point",
        "coordinates": [
          77.6550567,
          12.9747197
        ]
      },
      "id": "node/1328610606"
    },
    {
      "type": "Feature",
      "properties": {
        "@id": "node/1328612813",
        "name": "Namdhari Fresh",
        "shop": "convenience"
      },
      "geometry": {
        "type": "Point",
        "coordinates": [
          77.7146937,
          12.9565189
        ]
      },
      "id": "node/1328612813"
    },
    {
      "type": "Feature",
      "properties": {
        "@id": "node/1329325018",
        "shop": "convenience"
      },
      "geometry": {
        "type": "Point",
        "coordinates": [
          80.2030143,
          12.923764
        ]
      },
      "id": "node/1329325018"
    },
    {
      "type": "Feature",
      "properties": {
        "@id": "node/1330439618",
        "shop": "convenience"
      },
      "geometry": {
        "type": "Point",
        "coordinates": [
          80.2033582,
          12.9274057
        ]
      },
      "id": "node/1330439618"
    },
    {
      "type": "Feature",
      "properties": {
        "@id": "node/1331289937",
        "name": "Easyday",
        "name:ur": "ایزی ڈے",
        "shop": "convenience"
      },
      "geometry": {
        "type": "Point",
        "coordinates": [
          74.256706,
          30.6065618
        ]
      },
      "id": "node/1331289937"
    },
    {
      "type": "Feature",
      "properties": {
        "@id": "node/1331929313",
        "name": "More",
        "shop": "convenience"
      },
      "geometry": {
        "type": "Point",
        "coordinates": [
          77.5633158,
          12.9066967
        ]
      },
      "id": "node/1331929313"
    },
    {
      "type": "Feature",
      "properties": {
        "@id": "node/1335911573",
        "name": "Khadi Bhawan",
        "shop": "convenience"
      },
      "geometry": {
        "type": "Point",
        "coordinates": [
          74.6174027,
          30.9260766
        ]
      },
      "id": "node/1335911573"
    },
    {
      "type": "Feature",
      "properties": {
        "@id": "node/1335915006",
        "name": "Wadhwa Vegetable and Fruit shop",
        "shop": "convenience"
      },
      "geometry": {
        "type": "Point",
        "coordinates": [
          74.6177213,
          30.9261413
        ]
      },
      "id": "node/1335915006"
    },
    {
      "type": "Feature",
      "properties": {
        "@id": "node/1335928688",
        "name": "Bhola Jewellers",
        "shop": "convenience"
      },
      "geometry": {
        "type": "Point",
        "coordinates": [
          74.6186136,
          30.9258577
        ]
      },
      "id": "node/1335928688"
    },
    {
      "type": "Feature",
      "properties": {
        "@id": "node/1338021375",
        "addr:housename": "Near Jain Temple",
        "addr:street": "Shastri Nagar",
        "name": "Relaince Fresh",
        "shop": "convenience"
      },
      "geometry": {
        "type": "Point",
        "coordinates": [
          75.7977858,
          26.9459398
        ]
      },
      "id": "node/1338021375"
    },
    {
      "type": "Feature",
      "properties": {
        "@id": "node/1339360302",
        "name": "Kiranam Shop",
        "shop": "convenience"
      },
      "geometry": {
        "type": "Point",
        "coordinates": [
          79.5456047,
          17.9974572
        ]
      },
      "id": "node/1339360302"
    },
    {
      "type": "Feature",
      "properties": {
        "@id": "node/1339361646",
        "name": "Poshaya Shop",
        "shop": "convenience"
      },
      "geometry": {
        "type": "Point",
        "coordinates": [
          79.5449342,
          17.997651
        ]
      },
      "id": "node/1339361646"
    },
    {
      "type": "Feature",
      "properties": {
        "@id": "node/1339364797",
        "name": "Kiranam Shop",
        "shop": "convenience"
      },
      "geometry": {
        "type": "Point",
        "coordinates": [
          79.5445453,
          17.9979189
        ]
      },
      "id": "node/1339364797"
    },
    {
      "type": "Feature",
      "properties": {
        "@id": "node/1343672761",
        "name": "Shushil Kirana Store",
        "shop": "convenience"
      },
      "geometry": {
        "type": "Point",
        "coordinates": [
          79.0194228,
          28.7877079
        ]
      },
      "id": "node/1343672761"
    },
    {
      "type": "Feature",
      "properties": {
        "@id": "node/1343672801",
        "name": "Ahuja genral store",
        "shop": "convenience"
      },
      "geometry": {
        "type": "Point",
        "coordinates": [
          79.019911,
          28.787624
        ]
      },
      "id": "node/1343672801"
    },
    {
      "type": "Feature",
      "properties": {
        "@id": "node/1343672934",
        "name": "Easy Day",
        "shop": "convenience"
      },
      "geometry": {
        "type": "Point",
        "coordinates": [
          79.0222391,
          28.7973038
        ]
      },
      "id": "node/1343672934"
    },
    {
      "type": "Feature",
      "properties": {
        "@id": "node/1344329543",
        "name": "bhirgu jyotish kendra",
        "opening_hours": "Mo-Fr 08:30-20:00",
        "shop": "convenience"
      },
      "geometry": {
        "type": "Point",
        "coordinates": [
          74.6174012,
          30.9261104
        ]
      },
      "id": "node/1344329543"
    },
    {
      "type": "Feature",
      "properties": {
        "@id": "node/1344403392",
        "name": "bansal Gift Corner",
        "shop": "convenience"
      },
      "geometry": {
        "type": "Point",
        "coordinates": [
          74.6172091,
          30.9220513
        ]
      },
      "id": "node/1344403392"
    },
    {
      "type": "Feature",
      "properties": {
        "@id": "node/1344584749",
        "name": "Buvan Provisions Store",
        "shop": "convenience"
      },
      "geometry": {
        "type": "Point",
        "coordinates": [
          80.2042319,
          13.031548
        ]
      },
      "id": "node/1344584749"
    },
    {
      "type": "Feature",
      "properties": {
        "@id": "node/1344698115",
        "name": "Kwik Flame(HP Gas agency)",
        "shop": "convenience"
      },
      "geometry": {
        "type": "Point",
        "coordinates": [
          74.6189921,
          30.9242947
        ]
      },
      "id": "node/1344698115"
    },
    {
      "type": "Feature",
      "properties": {
        "@id": "node/1344698135",
        "name": "Krishna watch company",
        "shop": "convenience"
      },
      "geometry": {
        "type": "Point",
        "coordinates": [
          74.6191738,
          30.9246369
        ]
      },
      "id": "node/1344698135"
    },
    {
      "type": "Feature",
      "properties": {
        "@id": "node/1344723454",
        "name": "Rattan Matting House",
        "shop": "convenience"
      },
      "geometry": {
        "type": "Point",
        "coordinates": [
          74.6209593,
          30.928491
        ]
      },
      "id": "node/1344723454"
    },
    {
      "type": "Feature",
      "properties": {
        "@id": "node/1344723456",
        "name": "Flying Machine Showroom",
        "shop": "convenience"
      },
      "geometry": {
        "type": "Point",
        "coordinates": [
          74.6211763,
          30.928805
        ]
      },
      "id": "node/1344723456"
    },
    {
      "type": "Feature",
      "properties": {
        "@id": "node/1344751673",
        "name": "Royal Pet Shop",
        "shop": "convenience"
      },
      "geometry": {
        "type": "Point",
        "coordinates": [
          74.6168662,
          30.923489
        ]
      },
      "id": "node/1344751673"
    },
    {
      "type": "Feature",
      "properties": {
        "@id": "node/1344858869",
        "name": "Connect Telephones Office",
        "shop": "convenience"
      },
      "geometry": {
        "type": "Point",
        "coordinates": [
          74.6200313,
          30.9300965
        ]
      },
      "id": "node/1344858869"
    },
    {
      "type": "Feature",
      "properties": {
        "@id": "node/1344983610",
        "name": "Scooter Market",
        "opening_hours": "Su 09:00-18:00",
        "shop": "convenience"
      },
      "geometry": {
        "type": "Point",
        "coordinates": [
          74.6243754,
          30.9289247
        ]
      },
      "id": "node/1344983610"
    },
    {
      "type": "Feature",
      "properties": {
        "@id": "node/1344993192",
        "name": "Mico Plugs(BOSCH) Showroom",
        "shop": "convenience"
      },
      "geometry": {
        "type": "Point",
        "coordinates": [
          74.6220387,
          30.9295105
        ]
      },
      "id": "node/1344993192"
    },
    {
      "type": "Feature",
      "properties": {
        "@id": "node/1345634229",
        "name": "Verma Trading Company",
        "shop": "convenience"
      },
      "geometry": {
        "type": "Point",
        "coordinates": [
          74.6230962,
          30.9379204
        ]
      },
      "id": "node/1345634229"
    },
    {
      "type": "Feature",
      "properties": {
        "@id": "node/1345634242",
        "name": "Vegetables shop",
        "shop": "convenience"
      },
      "geometry": {
        "type": "Point",
        "coordinates": [
          74.6232687,
          30.9386166
        ]
      },
      "id": "node/1345634242"
    },
    {
      "type": "Feature",
      "properties": {
        "@id": "node/1345634251",
        "name": "badri prasad shop",
        "shop": "convenience"
      },
      "geometry": {
        "type": "Point",
        "coordinates": [
          74.6233501,
          30.9388738
        ]
      },
      "id": "node/1345634251"
    },
    {
      "type": "Feature",
      "properties": {
        "@id": "node/1346035310",
        "name": "Stove Repair",
        "shop": "convenience"
      },
      "geometry": {
        "type": "Point",
        "coordinates": [
          74.6236438,
          30.9399648
        ]
      },
      "id": "node/1346035310"
    },
    {
      "type": "Feature",
      "properties": {
        "@id": "node/1346035314",
        "name": "Harish Vegetables",
        "shop": "convenience"
      },
      "geometry": {
        "type": "Point",
        "coordinates": [
          74.6235148,
          30.9393345
        ]
      },
      "id": "node/1346035314"
    },
    {
      "type": "Feature",
      "properties": {
        "@id": "node/1346169978",
        "name": "Adarsh Dairy",
        "shop": "convenience"
      },
      "geometry": {
        "type": "Point",
        "coordinates": [
          74.6220891,
          30.9243894
        ]
      },
      "id": "node/1346169978"
    },
    {
      "type": "Feature",
      "properties": {
        "@id": "node/1348473021",
        "name": "John Players",
        "shop": "convenience"
      },
      "geometry": {
        "type": "Point",
        "coordinates": [
          74.6209814,
          30.9283744
        ]
      },
      "id": "node/1348473021"
    },
    {
      "type": "Feature",
      "properties": {
        "@id": "node/1349430696",
        "name": "Wadhwa Provision store(Ifi's Father's shop)",
        "shop": "convenience"
      },
      "geometry": {
        "type": "Point",
        "coordinates": [
          74.6176095,
          30.9260629
        ]
      },
      "id": "node/1349430696"
    },
    {
      "type": "Feature",
      "properties": {
        "@id": "node/1349596230",
        "name": "U-Like Tailors",
        "shop": "convenience"
      },
      "geometry": {
        "type": "Point",
        "coordinates": [
          74.6196913,
          30.925497
        ]
      },
      "id": "node/1349596230"
    },
    {
      "type": "Feature",
      "properties": {
        "@id": "node/1350084432",
        "name": "Crockery shop",
        "shop": "convenience"
      },
      "geometry": {
        "type": "Point",
        "coordinates": [
          74.6225137,
          30.9283256
        ]
      },
      "id": "node/1350084432"
    },
    {
      "type": "Feature",
      "properties": {
        "@id": "node/1350114942",
        "name": "Janta Market",
        "shop": "convenience"
      },
      "geometry": {
        "type": "Point",
        "coordinates": [
          74.6198091,
          30.9256196
        ]
      },
      "id": "node/1350114942"
    },
    {
      "type": "Feature",
      "properties": {
        "@id": "node/1350120317",
        "name": "Dukes Showroom",
        "shop": "convenience"
      },
      "geometry": {
        "type": "Point",
        "coordinates": [
          74.620925,
          30.9282469
        ]
      },
      "id": "node/1350120317"
    },
    {
      "type": "Feature",
      "properties": {
        "@id": "node/1355999019",
        "name": "Brijwasi General Store",
        "shop": "convenience",
        "source": "survey"
      },
      "geometry": {
        "type": "Point",
        "coordinates": [
          77.3204293,
          28.6409214
        ]
      },
      "id": "node/1355999019"
    },
    {
      "type": "Feature",
      "properties": {
        "@id": "node/1356000312",
        "name": "Mother Dairy booth",
        "shop": "convenience"
      },
      "geometry": {
        "type": "Point",
        "coordinates": [
          77.3192277,
          28.6426869
        ]
      },
      "id": "node/1356000312"
    },
    {
      "type": "Feature",
      "properties": {
        "@id": "node/1361329787",
        "shop": "convenience"
      },
      "geometry": {
        "type": "Point",
        "coordinates": [
          78.5447413,
          17.4180619
        ]
      },
      "id": "node/1361329787"
    },
    {
      "type": "Feature",
      "properties": {
        "@id": "node/1369674748",
        "addr:housename": "Bharat Kirana Stores",
        "addr:housenumber": "1488/2 Bharat Kirana Stores",
        "addr:postcode": "380004",
        "addr:street": "JUNA MADHUPURA ROAD",
        "alt_name": "Mahendrakumar Sampatlal Shah",
        "designation": "Owner",
        "int_name": "Bharat Kirana Stores",
        "name": "Bharat Kirana Stores",
        "old_name": "Bharat Kirana Stores",
        "shop": "convenience",
        "source": "Owner"
      },
      "geometry": {
        "type": "Point",
        "coordinates": [
          72.5889014,
          23.0380231
        ]
      },
      "id": "node/1369674748"
    },
    {
      "type": "Feature",
      "properties": {
        "@id": "node/1375860397",
        "name": "Essel Towers Shopping Complex",
        "shop": "convenience",
        "sport": "tennis"
      },
      "geometry": {
        "type": "Point",
        "coordinates": [
          77.0740013,
          28.477073
        ]
      },
      "id": "node/1375860397"
    },
    {
      "type": "Feature",
      "properties": {
        "@id": "node/1384409244",
        "name": "More",
        "shop": "convenience"
      },
      "geometry": {
        "type": "Point",
        "coordinates": [
          78.3418779,
          17.4363961
        ]
      },
      "id": "node/1384409244"
    },
    {
      "type": "Feature",
      "properties": {
        "@id": "node/1396839448",
        "name": "store",
        "shop": "convenience"
      },
      "geometry": {
        "type": "Point",
        "coordinates": [
          72.9291774,
          19.0429129
        ]
      },
      "id": "node/1396839448"
    },
    {
      "type": "Feature",
      "properties": {
        "@id": "node/1398694204",
        "shop": "convenience"
      },
      "geometry": {
        "type": "Point",
        "coordinates": [
          72.933379,
          19.0423412
        ]
      },
      "id": "node/1398694204"
    },
    {
      "type": "Feature",
      "properties": {
        "@id": "node/1425221979",
        "shop": "convenience"
      },
      "geometry": {
        "type": "Point",
        "coordinates": [
          76.9459728,
          11.0261381
        ]
      },
      "id": "node/1425221979"
    },
    {
      "type": "Feature",
      "properties": {
        "@id": "node/1431226038",
        "shop": "convenience"
      },
      "geometry": {
        "type": "Point",
        "coordinates": [
          77.2265962,
          28.7000836
        ]
      },
      "id": "node/1431226038"
    },
    {
      "type": "Feature",
      "properties": {
        "@id": "node/1431226042",
        "shop": "convenience"
      },
      "geometry": {
        "type": "Point",
        "coordinates": [
          77.2265775,
          28.6999236
        ]
      },
      "id": "node/1431226042"
    },
    {
      "type": "Feature",
      "properties": {
        "@id": "node/1434028322",
        "name": "Chittettu Agencies",
        "shop": "convenience"
      },
      "geometry": {
        "type": "Point",
        "coordinates": [
          76.6856489,
          9.7140578
        ]
      },
      "id": "node/1434028322"
    },
    {
      "type": "Feature",
      "properties": {
        "@id": "node/1446279948",
        "name": "Margin Free Market",
        "shop": "convenience"
      },
      "geometry": {
        "type": "Point",
        "coordinates": [
          76.7779509,
          9.6865907
        ]
      },
      "id": "node/1446279948"
    },
    {
      "type": "Feature",
      "properties": {
        "@id": "node/1451387203",
        "name": "Hegde Stores",
        "shop": "convenience"
      },
      "geometry": {
        "type": "Point",
        "coordinates": [
          74.8302196,
          12.9103681
        ]
      },
      "id": "node/1451387203"
    },
    {
      "type": "Feature",
      "properties": {
        "@id": "node/1455691824",
        "name": "Thottungal Peedika",
        "shop": "convenience"
      },
      "geometry": {
        "type": "Point",
        "coordinates": [
          76.6829771,
          9.7128403
        ]
      },
      "id": "node/1455691824"
    },
    {
      "type": "Feature",
      "properties": {
        "@id": "node/1463565490",
        "name": "Choice Gallery",
        "shop": "convenience"
      },
      "geometry": {
        "type": "Point",
        "coordinates": [
          77.51694,
          12.9253397
        ]
      },
      "id": "node/1463565490"
    },
    {
      "type": "Feature",
      "properties": {
        "@id": "node/1463643963",
        "name": "Mythri Bazaar",
        "shop": "convenience"
      },
      "geometry": {
        "type": "Point",
        "coordinates": [
          77.558535,
          13.0769096
        ]
      },
      "id": "node/1463643963"
    },
    {
      "type": "Feature",
      "properties": {
        "@id": "node/1463653755",
        "name": "More Departmental Store",
        "shop": "convenience"
      },
      "geometry": {
        "type": "Point",
        "coordinates": [
          77.5560466,
          13.0719688
        ]
      },
      "id": "node/1463653755"
    },
    {
      "type": "Feature",
      "properties": {
        "@id": "node/1464772068",
        "name": "More",
        "shop": "convenience"
      },
      "geometry": {
        "type": "Point",
        "coordinates": [
          77.5671533,
          13.0354798
        ]
      },
      "id": "node/1464772068"
    },
    {
      "type": "Feature",
      "properties": {
        "@id": "node/1464791102",
        "name": "Nilgiris",
        "name:kn": "ನೀಲ್ಗಿರಿಸ್",
        "shop": "convenience"
      },
      "geometry": {
        "type": "Point",
        "coordinates": [
          77.6218199,
          12.935716
        ]
      },
      "id": "node/1464791102"
    },
    {
      "type": "Feature",
      "properties": {
        "@id": "node/1465083377",
        "name": "R.V & son",
        "shop": "convenience"
      },
      "geometry": {
        "type": "Point",
        "coordinates": [
          79.1181103,
          10.7727207
        ]
      },
      "id": "node/1465083377"
    },
    {
      "type": "Feature",
      "properties": {
        "@id": "node/1465126209",
        "shop": "convenience"
      },
      "geometry": {
        "type": "Point",
        "coordinates": [
          75.6364766,
          15.4175149
        ]
      },
      "id": "node/1465126209"
    },
    {
      "type": "Feature",
      "properties": {
        "@id": "node/1465190491",
        "designation": "convenience store for all household items & accessories",
        "name": "Sowbaghya traders",
        "shop": "convenience"
      },
      "geometry": {
        "type": "Point",
        "coordinates": [
          77.6228947,
          12.9352032
        ]
      },
      "id": "node/1465190491"
    },
    {
      "type": "Feature",
      "properties": {
        "@id": "node/1465590356",
        "addr:street": "Manipal County Road",
        "name": "Store",
        "shop": "convenience"
      },
      "geometry": {
        "type": "Point",
        "coordinates": [
          77.6448305,
          12.8737198
        ]
      },
      "id": "node/1465590356"
    },
    {
      "type": "Feature",
      "properties": {
        "@id": "node/1465777960",
        "addr:postcode": "560095",
        "addr:street": "Adugodi main road",
        "name": "Forum bakery",
        "shop": "convenience"
      },
      "geometry": {
        "type": "Point",
        "coordinates": [
          77.6159961,
          12.9418577
        ]
      },
      "id": "node/1465777960"
    },
    {
      "type": "Feature",
      "properties": {
        "@id": "node/1466726396",
        "addr:street": "2nd Cross LIC Colony",
        "name": "Nandini Milk Diary",
        "shop": "convenience"
      },
      "geometry": {
        "type": "Point",
        "coordinates": [
          77.5901342,
          12.9309732
        ]
      },
      "id": "node/1466726396"
    },
    {
      "type": "Feature",
      "properties": {
        "@id": "node/1466728973",
        "name": "Hopcoms",
        "name:kn": "ಹಾಪ್ ಕಾಮ್ಸ್",
        "shop": "convenience"
      },
      "geometry": {
        "type": "Point",
        "coordinates": [
          77.5905204,
          12.9307824
        ]
      },
      "id": "node/1466728973"
    },
    {
      "type": "Feature",
      "properties": {
        "@id": "node/1467362696",
        "addr:city": "Bangalore",
        "addr:housenumber": "51",
        "addr:postcode": "560094",
        "addr:street": "80 Feet Road, Rmv Extension,",
        "name": "Kwality BIg Bazaar",
        "phone": "080-23515851",
        "shop": "convenience",
        "website": "NA"
      },
      "geometry": {
        "type": "Point",
        "coordinates": [
          77.5716015,
          13.0285232
        ]
      },
      "id": "node/1467362696"
    },
    {
      "type": "Feature",
      "properties": {
        "@id": "node/1467778590",
        "addr:housename": "'Omkara Nilaya'",
        "addr:housenumber": "161",
        "addr:postcode": "560028",
        "addr:street": "3rd Block, T. R. Nagar, 6th Cross, 6th Main",
        "name": "Sri Lakshmi Venkateshwara Provision Stores",
        "shop": "convenience"
      },
      "geometry": {
        "type": "Point",
        "coordinates": [
          77.5660039,
          12.9333966
        ]
      },
      "id": "node/1467778590"
    },
    {
      "type": "Feature",
      "properties": {
        "@id": "node/1467817168",
        "addr:housename": "Damodara Nilaya",
        "addr:postcode": "577601",
        "addr:street": "3rd main 2nd cross",
        "name": "Shetty Kirana Store",
        "shop": "convenience"
      },
      "geometry": {
        "type": "Point",
        "coordinates": [
          75.8106205,
          14.5009494
        ]
      },
      "id": "node/1467817168"
    },
    {
      "type": "Feature",
      "properties": {
        "@id": "node/1468190779",
        "designation": "Dresses/Toys for Kids",
        "name": "Baby's day out",
        "shop": "convenience"
      },
      "geometry": {
        "type": "Point",
        "coordinates": [
          77.6128207,
          12.9353286
        ]
      },
      "id": "node/1468190779"
    },
    {
      "type": "Feature",
      "properties": {
        "@id": "node/1468235026",
        "name": "Nandini Shoppe",
        "shop": "convenience"
      },
      "geometry": {
        "type": "Point",
        "coordinates": [
          77.6170968,
          12.9364451
        ]
      },
      "id": "node/1468235026"
    },
    {
      "type": "Feature",
      "properties": {
        "@id": "node/1468247384",
        "name": "MK Ahmed",
        "shop": "convenience"
      },
      "geometry": {
        "type": "Point",
        "coordinates": [
          77.6486797,
          12.912091
        ]
      },
      "id": "node/1468247384"
    },
    {
      "type": "Feature",
      "properties": {
        "@id": "node/1468324420",
        "name": "Sither Stores",
        "shop": "convenience"
      },
      "geometry": {
        "type": "Point",
        "coordinates": [
          76.9959292,
          10.9969511
        ]
      },
      "id": "node/1468324420"
    },
    {
      "type": "Feature",
      "properties": {
        "@id": "node/1468324448",
        "name": "Murugan stores",
        "shop": "convenience"
      },
      "geometry": {
        "type": "Point",
        "coordinates": [
          76.9999043,
          10.9971433
        ]
      },
      "id": "node/1468324448"
    },
    {
      "type": "Feature",
      "properties": {
        "@id": "node/1468540684",
        "name": "OM Stationery and xerox",
        "shop": "convenience"
      },
      "geometry": {
        "type": "Point",
        "coordinates": [
          77.6255862,
          12.9364455
        ]
      },
      "id": "node/1468540684"
    },
    {
      "type": "Feature",
      "properties": {
        "@id": "node/1469643919",
        "designation": "Dresses/Toys for Kids",
        "name": "Babys Planet",
        "shop": "convenience"
      },
      "geometry": {
        "type": "Point",
        "coordinates": [
          77.6149366,
          12.9362945
        ]
      },
      "id": "node/1469643919"
    },
    {
      "type": "Feature",
      "properties": {
        "@id": "node/1470523370",
        "name": "Reliance Footprint",
        "shop": "convenience"
      },
      "geometry": {
        "type": "Point",
        "coordinates": [
          77.6164628,
          12.9364168
        ]
      },
      "id": "node/1470523370"
    },
    {
      "type": "Feature",
      "properties": {
        "@id": "node/1470523388",
        "designation": "Fruits and Vegetables",
        "name": "Hopcoms",
        "name:kn": "ಹಾಪ್ ಕಾಮ್ಸ್",
        "shop": "convenience"
      },
      "geometry": {
        "type": "Point",
        "coordinates": [
          77.6176725,
          12.9365946
        ]
      },
      "id": "node/1470523388"
    },
    {
      "type": "Feature",
      "properties": {
        "@id": "node/1470628756",
        "name": "Hot Chips",
        "shop": "convenience"
      },
      "geometry": {
        "type": "Point",
        "coordinates": [
          77.6120888,
          12.9370062
        ]
      },
      "id": "node/1470628756"
    },
    {
      "type": "Feature",
      "properties": {
        "@id": "node/1470634295",
        "name": "Hot Chips",
        "shop": "convenience"
      },
      "geometry": {
        "type": "Point",
        "coordinates": [
          77.6210315,
          12.9362348
        ]
      },
      "id": "node/1470634295"
    },
    {
      "type": "Feature",
      "properties": {
        "@id": "node/1470703035",
        "name": "Mahalaxmi Provisional Store",
        "shop": "convenience"
      },
      "geometry": {
        "type": "Point",
        "coordinates": [
          77.6055734,
          12.9146789
        ]
      },
      "id": "node/1470703035"
    },