{
  "type": "FeatureCollection",
  "generator": "overpass-ide",
  "copyright": "The data included in this document is from www.openstreetmap.org. The data is made available under ODbL.",
  "timestamp": "2023-07-13T11:00:42Z",
  "features": [
    {
      "type": "Feature",
      "properties": {
        "@id": "node/366076252",
        "created_by": "Potlatch 0.10f",
        "name": "Spencers",
        "shop": "department_store"
      },
      "geometry": {
        "type": "Point",
        "coordinates": [
          80.2155995,
          13.0703937
        ]
      },
      "id": "node/366076252"
    },
    {
      "type": "Feature",
      "properties": {
        "@id": "node/442532932",
        "name": "Heritage Fresh",
        "operator": "Fresh@",
        "shop": "department_store"
      },
      "geometry": {
        "type": "Point",
        "coordinates": [
          80.2012094,
          12.9651746
        ]
      },
      "id": "node/442532932"
    },
    {
      "type": "Feature",
      "properties": {
        "@id": "node/513394998",
        "addr:city": "Marathahalli, Bangalore",
        "addr:street": "Outer Ring Road",
        "name": "Home Town Store",
        "shop": "department_store"
      },
      "geometry": {
        "type": "Point",
        "coordinates": [
          77.6994421,
          12.9528644
        ]
      },
      "id": "node/513394998"
    },
    {
      "type": "Feature",
      "properties": {
        "@id": "node/523672480",
        "name": "Charles Shop",
        "shop": "department_store"
      },
      "geometry": {
        "type": "Point",
        "coordinates": [
          78.8122675,
          10.2511963
        ]
      },
      "id": "node/523672480"
    },
    {
      "type": "Feature",
      "properties": {
        "@id": "node/523707831",
        "name": "Kabalathan Kadai",
        "shop": "department_store"
      },
      "geometry": {
        "type": "Point",
        "coordinates": [
          78.8108482,
          10.2494863
        ]
      },
      "id": "node/523707831"
    },
    {
      "type": "Feature",
      "properties": {
        "@id": "node/560177558",
        "name": "Ayyanar",
        "shop": "department_store"
      },
      "geometry": {
        "type": "Point",
        "coordinates": [
          80.138168,
          12.9452163
        ]
      },
      "id": "node/560177558"
    },
    {
      "type": "Feature",
      "properties": {
        "@id": "node/560177561",
        "name": "muthu",
        "shop": "department_store"
      },
      "geometry": {
        "type": "Point",
        "coordinates": [
          80.1381443,
          12.9455314
        ]
      },
      "id": "node/560177561"
    },
    {
      "type": "Feature",
      "properties": {
        "@id": "node/577033657",
        "name": "Mohans",
        "shop": "department_store"
      },
      "geometry": {
        "type": "Point",
        "coordinates": [
          76.702335,
          11.4132479
        ]
      },
      "id": "node/577033657"
    },
    {
      "type": "Feature",
      "properties": {
        "@id": "node/669268152",
        "name": "Westside",
        "shop": "department_store"
      },
      "geometry": {
        "type": "Point",
        "coordinates": [
          72.8311609,
          18.9280426
        ]
      },
      "id": "node/669268152"
    },
    {
      "type": "Feature",
      "properties": {
        "@id": "node/726716833",
        "name": "Nike Showroom",
        "operator": "Nike",
        "shop": "department_store"
      },
      "geometry": {
        "type": "Point",
        "coordinates": [
          78.4835044,
          17.4025481
        ]
      },
      "id": "node/726716833"
    },
    {
      "type": "Feature",
      "properties": {
        "@id": "node/752202588",
        "shop": "department_store"
      },
      "geometry": {
        "type": "Point",
        "coordinates": [
          77.6219897,
          12.8989097
        ]
      },
      "id": "node/752202588"
    },
    {
      "type": "Feature",
      "properties": {
        "@id": "node/771240771",
        "name": "MORE",
        "shop": "department_store"
      },
      "geometry": {
        "type": "Point",
        "coordinates": [
          78.4899867,
          17.4131673
        ]
      },
      "id": "node/771240771"
    },
    {
      "type": "Feature",
      "properties": {
        "@id": "node/1039492931",
        "name": "Departmental Store",
        "shop": "department_store"
      },
      "geometry": {
        "type": "Point",
        "coordinates": [
          76.9793069,
          11.0386942
        ]
      },
      "id": "node/1039492931"
    },
    {
      "type": "Feature",
      "properties": {
        "@id": "node/1039593678",
        "name": "Departmental Store",
        "shop": "department_store"
      },
      "geometry": {
        "type": "Point",
        "coordinates": [
          76.982559,
          11.0408751
        ]
      },
      "id": "node/1039593678"
    },
    {
      "type": "Feature",
      "properties": {
        "@id": "node/1051271234",
        "name": "Shaji's",
        "name:ml": "ഷാജി'സ്",
        "opening_hours": "Tu-Su 08:00-15:00; Sa 08:00-12:00",
        "operator": "Shaji",
        "shop": "department_store"
      },
      "geometry": {
        "type": "Point",
        "coordinates": [
          76.8634209,
          9.0488619
        ]
      },
      "id": "node/1051271234"
    },
    {
      "type": "Feature",
      "properties": {
        "@id": "node/1299909591",
        "delivery": "yes",
        "name": "Multiplex",
        "shop": "department_store"
      },
      "geometry": {
        "type": "Point",
        "coordinates": [
          77.651684,
          12.914474
        ]
      },
      "id": "node/1299909591"
    },
    {
      "type": "Feature",
      "properties": {
        "@id": "node/1347496088",
        "name": "Nataraj Market",
        "shop": "department_store"
      },
      "geometry": {
        "type": "Point",
        "coordinates": [
          72.8467885,
          19.1875716
        ]
      },
      "id": "node/1347496088"
    },
    {
      "type": "Feature",
      "properties": {
        "@id": "node/1352264164",
        "name": "Dattani Trade Centre",
        "shop": "department_store"
      },
      "geometry": {
        "type": "Point",
        "coordinates": [
          72.8555369,
          19.2310267
        ]
      },
      "id": "node/1352264164"
    },
    {
      "type": "Feature",
      "properties": {
        "@id": "node/1372597045",
        "name": "Needs",
        "shop": "department_store"
      },
      "geometry": {
        "type": "Point",
        "coordinates": [
          77.0875123,
          28.4627711
        ]
      },
      "id": "node/1372597045"
    },
    {
      "type": "Feature",
      "properties": {
        "@id": "node/1389062656",
        "shop": "department_store"
      },
      "geometry": {
        "type": "Point",
        "coordinates": [
          77.0561511,
          28.4174599
        ]
      },
      "id": "node/1389062656"
    },
    {
      "type": "Feature",
      "properties": {
        "@id": "node/1474305080",
        "shop": "department_store"
      },
      "geometry": {
        "type": "Point",
        "coordinates": [
          74.7478353,
          13.3407425
        ]
      },
      "id": "node/1474305080"
    },
    {
      "type": "Feature",
      "properties": {
        "@id": "node/1474305087",
        "shop": "department_store"
      },
      "geometry": {
        "type": "Point",
        "coordinates": [
          74.7499624,
          13.3413291
        ]
      },
      "id": "node/1474305087"
    },
    {
      "type": "Feature",
      "properties": {
        "@id": "node/1541913582",
        "name": "D'Mart",
        "shop": "department_store"
      },
      "geometry": {
        "type": "Point",
        "coordinates": [
          73.09177,
          19.1904525
        ]
      },
      "id": "node/1541913582"
    },
    {
      "type": "Feature",
      "properties": {
        "@id": "node/1716257926",
        "name": "Kamath General Store",
        "shop": "department_store"
      },
      "geometry": {
        "type": "Point",
        "coordinates": [
          74.9390375,
          13.1856753
        ]
      },
      "id": "node/1716257926"
    },
    {
      "type": "Feature",
      "properties": {
        "@id": "node/1831930001",
        "shop": "department_store"
      },
      "geometry": {
        "type": "Point",
        "coordinates": [
          77.8923866,
          11.0429389
        ]
      },
      "id": "node/1831930001"
    },
    {
      "type": "Feature",
      "properties": {
        "@id": "node/1864486760",
        "addr:city": "Thane",
        "addr:housename": "1st Floor, High Street Mall",
        "addr:street": "Agra Road",
        "building": "yes",
        "name": "Easyday Market",
        "shop": "department_store"
      },
      "geometry": {
        "type": "Point",
        "coordinates": [
          72.9811625,
          19.2173185
        ]
      },
      "id": "node/1864486760"
    },
    {
      "type": "Feature",
      "properties": {
        "@id": "node/1897583259",
        "shop": "department_store"
      },
      "geometry": {
        "type": "Point",
        "coordinates": [
          72.8364265,
          19.0598159
        ]
      },
      "id": "node/1897583259"
    },
    {
      "type": "Feature",
      "properties": {
        "@id": "node/1985843821",
        "name": "Khanna Karyana Store",
        "opening_hours": "08:30-20:00",
        "shop": "department_store"
      },
      "geometry": {
        "type": "Point",
        "coordinates": [
          75.7974977,
          30.871949
        ]
      },
      "id": "node/1985843821"
    },
    {
      "type": "Feature",
      "properties": {
        "@id": "node/2152139498",
        "name": "Shoppers Shop",
        "shop": "department_store"
      },
      "geometry": {
        "type": "Point",
        "coordinates": [
          78.1124469,
          9.9181655
        ]
      },
      "id": "node/2152139498"
    },
    {
      "type": "Feature",
      "properties": {
        "@id": "node/2154074916",
        "internet_access": "yes",
        "shop": "department_store"
      },
      "geometry": {
        "type": "Point",
        "coordinates": [
          79.0554282,
          12.2199641
        ]
      },
      "id": "node/2154074916"
    },
    {
      "type": "Feature",
      "properties": {
        "@id": "node/2154131353",
        "name": "Poompuhaar Sales Showroom",
        "operator": "Govt. of Tamilnadu",
        "shop": "department_store"
      },
      "geometry": {
        "type": "Point",
        "coordinates": [
          80.1943326,
          12.616688
        ]
      },
      "id": "node/2154131353"
    },
    {
      "type": "Feature",
      "properties": {
        "@id": "node/2175276571",
        "addr:street": "Kanakapura Road",
        "name": "Food World",
        "name:kn": "ಫುಡ್ ವರ್ಲ್ಡ್",
        "shop": "department_store"
      },
      "geometry": {
        "type": "Point",
        "coordinates": [
          77.5773618,
          12.9247295
        ]
      },
      "id": "node/2175276571"
    },
    {
      "type": "Feature",
      "properties": {
        "@id": "node/2201908703",
        "name": "Parkash",
        "shop": "department_store"
      },
      "geometry": {
        "type": "Point",
        "coordinates": [
          75.8214367,
          30.7615176
        ]
      },
      "id": "node/2201908703"
    },
    {
      "type": "Feature",
      "properties": {
        "@id": "node/2261605680",
        "name": "Panduranga Coffee Works",
        "shop": "department_store"
      },
      "geometry": {
        "type": "Point",
        "coordinates": [
          75.7743759,
          13.3169503
        ]
      },
      "id": "node/2261605680"
    },
    {
      "type": "Feature",
      "properties": {
        "@id": "node/2261605682",
        "amenity": "atm",
        "drive_through": "no",
        "name": "SBI",
        "name:kn": "ಭಾರತೀಯ ಸ್ಟೇಟ್ ಬ್ಯಾಂಕ್",
        "operator": "SBI",
        "shop": "department_store"
      },
      "geometry": {
        "type": "Point",
        "coordinates": [
          75.7741666,
          13.3170912
        ]
      },
      "id": "node/2261605682"
    },
    {
      "type": "Feature",
      "properties": {
        "@id": "node/2271599259",
        "shop": "department_store"
      },
      "geometry": {
        "type": "Point",
        "coordinates": [
          77.3797862,
          8.9168611
        ]
      },
      "id": "node/2271599259"
    },
    {
      "type": "Feature",
      "properties": {
        "@id": "node/2271599267",
        "shop": "department_store"
      },
      "geometry": {
        "type": "Point",
        "coordinates": [
          77.3796762,
          8.9164106
        ]
      },
      "id": "node/2271599267"
    },
    {
      "type": "Feature",
      "properties": {
        "@id": "node/2290010462",
        "name": "City Super Bazaar",
        "shop": "department_store"
      },
      "geometry": {
        "type": "Point",
        "coordinates": [
          77.7173493,
          12.9934653
        ]
      },
      "id": "node/2290010462"
    },
    {
      "type": "Feature",
      "properties": {
        "@id": "node/2301202901",
        "shop": "department_store"
      },
      "geometry": {
        "type": "Point",
        "coordinates": [
          75.8096086,
          11.2782135
        ]
      },
      "id": "node/2301202901"
    },
    {
      "type": "Feature",
      "properties": {
        "@id": "node/2319433635",
        "name": "Shopper's Stop",
        "opening_hours": "10:00-23:00",
        "shop": "department_store",
        "website": "http://www.shopperstop.com"
      },
      "geometry": {
        "type": "Point",
        "coordinates": [
          72.9003822,
          19.0693214
        ]
      },
      "id": "node/2319433635"
    },
    {
      "type": "Feature",
      "properties": {
        "@id": "node/2332962321",
        "designation": "market",
        "name": "market",
        "shop": "department_store"
      },
      "geometry": {
        "type": "Point",
        "coordinates": [
          80.4416406,
          16.2948487
        ]
      },
      "id": "node/2332962321"
    },
    {
      "type": "Feature",
      "properties": {
        "@id": "node/2332966455",
        "designation": "market",
        "name": "market",
        "shop": "department_store"
      },
      "geometry": {
        "type": "Point",
        "coordinates": [
          80.4418981,
          16.2947663
        ]
      },
      "id": "node/2332966455"
    },
    {
      "type": "Feature",
      "properties": {
        "@id": "node/2343560266",
        "name": "Foodworld",
        "shop": "department_store"
      },
      "geometry": {
        "type": "Point",
        "coordinates": [
          77.6812577,
          12.9124334
        ]
      },
      "id": "node/2343560266"
    },
    {
      "type": "Feature",
      "properties": {
        "@id": "node/2344421726",
        "name": "Danam",
        "shop": "department_store"
      },
      "geometry": {
        "type": "Point",
        "coordinates": [
          77.8266586,
          12.7330085
        ]
      },
      "id": "node/2344421726"
    },
    {
      "type": "Feature",
      "properties": {
        "@id": "node/2349797858",
        "name": "Vodafone store",
        "shop": "department_store"
      },
      "geometry": {
        "type": "Point",
        "coordinates": [
          73.722178,
          15.6662426
        ]
      },
      "id": "node/2349797858"
    },
    {
      "type": "Feature",
      "properties": {
        "@id": "node/2365395925",
        "name": "Kannan Family Store",
        "shop": "department_store"
      },
      "geometry": {
        "type": "Point",
        "coordinates": [
          77.4197656,
          8.1798904
        ]
      },
      "id": "node/2365395925"
    },
    {
      "type": "Feature",
      "properties": {
        "@id": "node/2388210255",
        "shop": "department_store"
      },
      "geometry": {
        "type": "Point",
        "coordinates": [
          76.4872264,
          9.089191
        ]
      },
      "id": "node/2388210255"
    },
    {
      "type": "Feature",
      "properties": {
        "@id": "node/2388400634",
        "name": "Supplyco",
        "name:ml": "സപ്പ്ളൈക്കോ",
        "shop": "department_store"
      },
      "geometry": {
        "type": "Point",
        "coordinates": [
          76.4940313,
          9.0925253
        ]
      },
      "id": "node/2388400634"
    },
    {
      "type": "Feature",
      "properties": {
        "@id": "node/2389647508",
        "name": "Udaya General Stores",
        "shop": "department_store"
      },
      "geometry": {
        "type": "Point",
        "coordinates": [
          77.6178984,
          12.8980692
        ]
      },
      "id": "node/2389647508"
    },
    {
      "type": "Feature",
      "properties": {
        "@id": "node/2410180163",
        "addr:city": "New Delhi",
        "name": "Delhi Emporium",
        "shop": "department_store"
      },
      "geometry": {
        "type": "Point",
        "coordinates": [
          77.2153721,
          28.6312577
        ]
      },
      "id": "node/2410180163"
    },
    {
      "type": "Feature",
      "properties": {
        "@id": "node/2419477659",
        "shop": "department_store"
      },
      "geometry": {
        "type": "Point",
        "coordinates": [
          85.7400564,
          22.270269
        ]
      },
      "id": "node/2419477659"
    },
    {
      "type": "Feature",
      "properties": {
        "@id": "node/2432511316",
        "name": "PDS shop",
        "operator": "Government",
        "shop": "department_store"
      },
      "geometry": {
        "type": "Point",
        "coordinates": [
          77.3016872,
          13.2156405
        ]
      },
      "id": "node/2432511316"
    },
    {
      "type": "Feature",
      "properties": {
        "@id": "node/2464548335",
        "name": "Spencer's",
        "shop": "department_store"
      },
      "geometry": {
        "type": "Point",
        "coordinates": [
          88.4597448,
          22.5799144
        ]
      },
      "id": "node/2464548335"
    },
    {
      "type": "Feature",
      "properties": {
        "@id": "node/2464548350",
        "name": "Reliance Trends",
        "shop": "department_store"
      },
      "geometry": {
        "type": "Point",
        "coordinates": [
          88.459828,
          22.5799367
        ]
      },
      "id": "node/2464548350"
    },
    {
      "type": "Feature",
      "properties": {
        "@id": "node/2480884727",
        "addr:city": "Bangalore",
        "addr:housename": "Vijayanagar",
        "addr:postcode": "560040",
        "addr:street": "2nd cross",
        "name": "Divashree General Stores",
        "shop": "department_store"
      },
      "geometry": {
        "type": "Point",
        "coordinates": [
          77.5320111,
          12.9719476
        ]
      },
      "id": "node/2480884727"
    },
    {
      "type": "Feature",
      "properties": {
        "@id": "node/2480884792",
        "addr:city": "Bangalore",
        "addr:housename": "Vijayanagar",
        "addr:postcode": "560040",
        "addr:street": "Vijayanagar Water Tank Road",
        "name": "Kiran Traders",
        "shop": "department_store"
      },
      "geometry": {
        "type": "Point",
        "coordinates": [
          77.5335676,
          12.9744507
        ]
      },
      "id": "node/2480884792"
    },
    {
      "type": "Feature",
      "properties": {
        "@id": "node/2552582370",
        "name": "Rameshan's Department Store",
        "shop": "department_store"
      },
      "geometry": {
        "type": "Point",
        "coordinates": [
          76.9447927,
          8.5199285
        ]
      },
      "id": "node/2552582370"
    },
    {
      "type": "Feature",
      "properties": {
        "@id": "node/2597997780",
        "name": "PJJ Super Market",
        "shop": "department_store"
      },
      "geometry": {
        "type": "Point",
        "coordinates": [
          76.6930353,
          9.7120603
        ]
      },
      "id": "node/2597997780"
    },
    {
      "type": "Feature",
      "properties": {
        "@id": "node/2623613736",
        "name": "Nikaara Home Decor",
        "shop": "department_store"
      },
      "geometry": {
        "type": "Point",
        "coordinates": [
          77.7509547,
          12.9751995
        ]
      },
      "id": "node/2623613736"
    },
    {
      "type": "Feature",
      "properties": {
        "@id": "node/2634802285",
        "is_in": "Ullesugur",
        "name": "Kerosene Store",
        "shop": "department_store"
      },
      "geometry": {
        "type": "Point",
        "coordinates": [
          77.082612,
          16.64268
        ]
      },
      "id": "node/2634802285"
    },
    {
      "type": "Feature",
      "properties": {
        "@id": "node/2635030520",
        "is_in": "Shardahalli",
        "name": "Ration Store (45)",
        "shop": "department_store"
      },
      "geometry": {
        "type": "Point",
        "coordinates": [
          76.814587,
          16.5890374
        ]
      },
      "id": "node/2635030520"
    },
    {
      "type": "Feature",
      "properties": {
        "@id": "node/2635030521",
        "is_in": "Hattigudur",
        "name": "Ration Store (46)",
        "shop": "department_store"
      },
      "geometry": {
        "type": "Point",
        "coordinates": [
          76.881608,
          16.602711
        ]
      },
      "id": "node/2635030521"
    },
    {
      "type": "Feature",
      "properties": {
        "@id": "node/2635030522",
        "is_in": "Rasthapur",
        "name": "Ration Store (47)",
        "shop": "department_store"
      },
      "geometry": {
        "type": "Point",
        "coordinates": [
          76.854693,
          16.631423
        ]
      },
      "id": "node/2635030522"
    },
    {
      "type": "Feature",
      "properties": {
        "@id": "node/2635030523",
        "is_in": "Hattigudur",
        "name": "Ration Store (85)",
        "shop": "department_store"
      },
      "geometry": {
        "type": "Point",
        "coordinates": [
          76.881385,
          16.60129
        ]
      },
      "id": "node/2635030523"
    },
    {
      "type": "Feature",
      "properties": {
        "@id": "node/2652490678",
        "name": "Big Bazaar",
        "shop": "department_store"
      },
      "geometry": {
        "type": "Point",
        "coordinates": [
          78.0570006,
          27.1593519
        ]
      },
      "id": "node/2652490678"
    },
    {
      "type": "Feature",
      "properties": {
        "@id": "node/2685482946",
        "name": "Subong Shopping Mall",
        "shop": "department_store"
      },
      "geometry": {
        "type": "Point",
        "coordinates": [
          94.5181371,
          26.3241791
        ]
      },
      "id": "node/2685482946"
    },
    {
      "type": "Feature",
      "properties": {
        "@id": "node/2688024035",
        "shop": "department_store"
      },
      "geometry": {
        "type": "Point",
        "coordinates": [
          76.9557619,
          8.4620175
        ]
      },
      "id": "node/2688024035"
    },
    {
      "type": "Feature",
      "properties": {
        "@id": "node/2688024041",
        "shop": "department_store"
      },
      "geometry": {
        "type": "Point",
        "coordinates": [
          76.9560987,
          8.4619147
        ]
      },
      "id": "node/2688024041"
    },
    {
      "type": "Feature",
      "properties": {
        "@id": "node/2688024047",
        "shop": "department_store"
      },
      "geometry": {
        "type": "Point",
        "coordinates": [
          76.9564465,
          8.4621237
        ]
      },
      "id": "node/2688024047"
    },
    {
      "type": "Feature",
      "properties": {
        "@id": "node/2712675778",
        "name": "Reddy Timber Depot",
        "shop": "department_store"
      },
      "geometry": {
        "type": "Point",
        "coordinates": [
          78.0302778,
          15.8102538
        ]
      },
      "id": "node/2712675778"
    },
    {
      "type": "Feature",
      "properties": {
        "@id": "node/2913786050",
        "addr:city": "Ranchi",
        "addr:housenumber": "opp:galaxia maill",
        "addr:postcode": "834005",
        "addr:street": "Ratu Road",
        "name": "Kalika Market",
        "name:sat": "ᱠᱚᱞᱤᱠᱟ ᱵᱟᱡᱟᱨ",
        "shop": "department_store"
      },
      "geometry": {
        "type": "Point",
        "coordinates": [
          85.3000251,
          23.3815847
        ]
      },
      "id": "node/2913786050"
    },
    {
      "type": "Feature",
      "properties": {
        "@id": "node/2933888268",
        "name": "Mahalaxmi Co-Operative Society",
        "shop": "department_store"
      },
      "geometry": {
        "type": "Point",
        "coordinates": [
          76.843983,
          16.701229
        ]
      },
      "id": "node/2933888268"
    },
    {
      "type": "Feature",
      "properties": {
        "@id": "node/2933889178",
        "name": "2 Co-operative Soceity",
        "shop": "department_store"
      },
      "geometry": {
        "type": "Point",
        "coordinates": [
          76.8431491,
          16.7016534
        ]
      },
      "id": "node/2933889178"
    },
    {
      "type": "Feature",
      "properties": {
        "@id": "node/2934090869",
        "name": "Foodworld",
        "name:kn": "ಫುಡ್ ವರ್ಲ್ಡ್",
        "shop": "department_store"
      },
      "geometry": {
        "type": "Point",
        "coordinates": [
          77.5859258,
          12.9147454
        ]
      },
      "id": "node/2934090869"
    },
    {
      "type": "Feature",
      "properties": {
        "@id": "node/2996236145",
        "name": "Lakshmi Departmental Stores",
        "shop": "department_store"
      },
      "geometry": {
        "type": "Point",
        "coordinates": [
          77.5196155,
          12.9247082
        ]
      },
      "id": "node/2996236145"
    },
    {
      "type": "Feature",
      "properties": {
        "@id": "node/3007004057",
        "name": "Arora Store",
        "shop": "department_store"
      },
      "geometry": {
        "type": "Point",
        "coordinates": [
          76.3593624,
          32.198583
        ]
      },
      "id": "node/3007004057"
    },
    {
      "type": "Feature",
      "properties": {
        "@id": "node/3066946978",
        "name": "Amar Tex",
        "shop": "department_store"
      },
      "geometry": {
        "type": "Point",
        "coordinates": [
          76.3175836,
          32.2160708
        ]
      },
      "id": "node/3066946978"
    },
    {
      "type": "Feature",
      "properties": {
        "@id": "node/3071406985",
        "addr:city": "kanchipuram",
        "addr:housenumber": "72",
        "addr:postcode": "631501",
        "addr:street": "kamatchiamman sannathi street",
        "name": "Kamatchi Rice Shop",
        "opening_hours": "08:00-20:30",
        "shop": "department_store"
      },
      "geometry": {
        "type": "Point",
        "coordinates": [
          79.711254,
          12.8389685
        ]
      },
      "id": "node/3071406985"
    },
    {
      "type": "Feature",
      "properties": {
        "@id": "node/3087267680",
        "name": "Public Distribution Shop",
        "name:kn": "ನ್ಯಾಯ ಬೆಲೆ ಅಂಗಡಿ",
        "shop": "department_store"
      },
      "geometry": {
        "type": "Point",
        "coordinates": [
          77.1323556,
          16.839122
        ]
      },
      "id": "node/3087267680"
    },
    {
      "type": "Feature",
      "properties": {
        "@id": "node/3155739932",
        "name": "Mahadev Sweet Home",
        "shop": "department_store"
      },
      "geometry": {
        "type": "Point",
        "coordinates": [
          76.9222379,
          15.1424935
        ]
      },
      "id": "node/3155739932"
    },
    {
      "type": "Feature",
      "properties": {
        "@id": "node/3217683308",
        "name": "Consumer Supermart",
        "shop": "department_store",
        "source": "survey"
      },
      "geometry": {
        "type": "Point",
        "coordinates": [
          77.5790448,
          12.8917386
        ]
      },
      "id": "node/3217683308"
    },
    {
      "type": "Feature",
      "properties": {
        "@id": "node/3221217590",
        "addr:city": "Mysuru",
        "addr:postcode": "570023",
        "addr:street": "Paduvana Road",
        "name": "Kavitha Departmental Store",
        "shop": "department_store"
      },
      "geometry": {
        "type": "Point",
        "coordinates": [
          76.6211198,
          12.2954673
        ]
      },
      "id": "node/3221217590"
    },
    {
      "type": "Feature",
      "properties": {
        "@id": "node/3240556118",
        "name": "DEPARMENT",
        "shop": "department_store"
      },
      "geometry": {
        "type": "Point",
        "coordinates": [
          75.215977,
          19.8420808
        ]
      },
      "id": "node/3240556118"
    },
    {
      "type": "Feature",
      "properties": {
        "@id": "node/3240556119",
        "name": "JANERAL  DEPARTMENT",
        "shop": "department_store"
      },
      "geometry": {
        "type": "Point",
        "coordinates": [
          75.2155574,
          19.8429829
        ]
      },
      "id": "node/3240556119"
    },
    {
      "type": "Feature",
      "properties": {
        "@id": "node/3245633759",
        "name": "Evok",
        "shop": "department_store"
      },
      "geometry": {
        "type": "Point",
        "coordinates": [
          77.6716755,
          12.924063
        ]
      },
      "id": "node/3245633759"
    },
    {
      "type": "Feature",
      "properties": {
        "@id": "node/3289814968",
        "name": "Big G",
        "shop": "department_store"
      },
      "geometry": {
        "type": "Point",
        "coordinates": [
          73.9625629,
          15.2723496
        ]
      },
      "id": "node/3289814968"
    },
    {
      "type": "Feature",
      "properties": {
        "@id": "node/3305353529",
        "addr:street": "2nd Cross",
        "name": "Top in Town Departmental Store",
        "name:kn": "ಟಾಪ್ ಇನ್ ಟೌನ್ ಕಿರಾಣಿ ಆಂಗಡಿ",
        "shop": "department_store"
      },
      "geometry": {
        "type": "Point",
        "coordinates": [
          77.6438548,
          12.9636358
        ]
      },
      "id": "node/3305353529"
    },
    {
      "type": "Feature",
      "properties": {
        "@id": "node/3305353534",
        "shop": "department_store"
      },
      "geometry": {
        "type": "Point",
        "coordinates": [
          77.6442295,
          12.9652093
        ]
      },
      "id": "node/3305353534"
    },
    {
      "type": "Feature",
      "properties": {
        "@id": "node/3320586661",
        "addr:city": "Puducherry",
        "addr:country": "IN",
        "addr:housenumber": "183",
        "addr:postcode": "605001",
        "addr:street": "Rue de la Mission",
        "name": "Honesty Co-op Society",
        "name:fr": "Société d'honnêteté",
        "shop": "department_store"
      },
      "geometry": {
        "type": "Point",
        "coordinates": [
          79.8312176,
          11.9354191
        ]
      },
      "id": "node/3320586661"
    },
    {
      "type": "Feature",
      "properties": {
        "@id": "node/3369884079",
        "addr:street": "Chinmaya Mission Hospital Road",
        "name": "fab India",
        "shop": "department_store",
        "wheelchair": "no"
      },
      "geometry": {
        "type": "Point",
        "coordinates": [
          77.6417223,
          12.9781461
        ]
      },
      "id": "node/3369884079"
    },
    {
      "type": "Feature",
      "properties": {
        "@id": "node/3370028602",
        "addr:city": "Bengaluru",
        "addr:postcode": "560038",
        "addr:street": "100ft road, indira nagar, HAL 2nd stage, Domalur",
        "name": "Puma store",
        "name:en": "PUMA OFFICE",
        "name:kn": "ಪೂಮ",
        "opening_hours": "10:00-20:30",
        "phone": "080 4210 0812",
        "shop": "department_store"
      },
      "geometry": {
        "type": "Point",
        "coordinates": [
          77.6437286,
          12.9782637
        ]
      },
      "id": "node/3370028602"
    },
    {
      "type": "Feature",
      "properties": {
        "@id": "node/3458596966",
        "name": "Sakthi Departmental store",
        "shop": "department_store"
      },
      "geometry": {
        "type": "Point",
        "coordinates": [
          79.5496122,
          11.6173868
        ]
      },
      "id": "node/3458596966"
    },
    {
      "type": "Feature",
      "properties": {
        "@id": "node/3476353652",
        "name": "More",
        "opening_hours": "06:00-21:00",
        "operator": "More",
        "shop": "department_store"
      },
      "geometry": {
        "type": "Point",
        "coordinates": [
          73.7879538,
          18.5947743
        ]
      },
      "id": "node/3476353652"
    },
    {
      "type": "Feature",
      "properties": {
        "@id": "node/3508987504",
        "name": "Jaisuryas Retail Ventures",
        "shop": "department_store"
      },
      "geometry": {
        "type": "Point",
        "coordinates": [
          78.1620041,
          11.2270627
        ]
      },
      "id": "node/3508987504"
    },
    {
      "type": "Feature",
      "properties": {
        "@id": "node/3551027393",
        "addr:street": "Anna Saalai",
        "name": "Jaffer merchant",
        "shop": "department_store"
      },
      "geometry": {
        "type": "Point",
        "coordinates": [
          79.1412535,
          10.7903126
        ]
      },
      "id": "node/3551027393"
    },
    {
      "type": "Feature",
      "properties": {
        "@id": "node/3557729791",
        "shop": "department_store"
      },
      "geometry": {
        "type": "Point",
        "coordinates": [
          76.0982581,
          10.9214465
        ]
      },
      "id": "node/3557729791"
    },
    {
      "type": "Feature",
      "properties": {
        "@id": "node/3591945258",
        "name": "Quality Mart",
        "opening_hours": "Mo-Su 8:00-21:00",
        "shop": "department_store"
      },
      "geometry": {
        "type": "Point",
        "coordinates": [
          74.2141271,
          30.1377446
        ]
      },
      "id": "node/3591945258"
    },
    {
      "type": "Feature",
      "properties": {
        "@id": "node/3602709659",
        "addr:city": "Bengaluru",
        "addr:postcode": "560004",
        "addr:street": "Sajjan Rao Circle",
        "name": "Maiyas Store",
        "operator": "Maiyas",
        "shop": "department_store"
      },
      "geometry": {
        "type": "Point",
        "coordinates": [
          77.5773377,
          12.9526217
        ]
      },
      "id": "node/3602709659"
    },
    {
      "type": "Feature",
      "properties": {
        "@id": "node/3663061191",
        "shop": "department_store"
      },
      "geometry": {
        "type": "Point",
        "coordinates": [
          76.377263,
          10.7739992
        ]
      },
      "id": "node/3663061191"
    },
    {
      "type": "Feature",
      "properties": {
        "@id": "node/3663091322",
        "name": "Shopping Centres",
        "shop": "department_store"
      },
      "geometry": {
        "type": "Point",
        "coordinates": [
          76.379677,
          10.7728451
        ]
      },
      "id": "node/3663091322"
    },
    {
      "type": "Feature",
      "properties": {
        "@id": "node/3686969923",
        "name": "Sri Lakshmi Stores",
        "shop": "department_store"
      },
      "geometry": {
        "type": "Point",
        "coordinates": [
          78.7753606,
          10.7856606
        ]
      },
      "id": "node/3686969923"
    },
    {
      "type": "Feature",
      "properties": {
        "@id": "node/3687732092",
        "name": "Nilgiris",
        "shop": "department_store"
      },
      "geometry": {
        "type": "Point",
        "coordinates": [
          78.6793029,
          10.6668502
        ]
      },
      "id": "node/3687732092"
    },
    {
      "type": "Feature",
      "properties": {
        "@id": "node/3702762519",
        "shop": "department_store"
      },
      "geometry": {
        "type": "Point",
        "coordinates": [
          77.5561658,
          34.1494265
        ]
      },
      "id": "node/3702762519"
    },
    {
      "type": "Feature",
      "properties": {
        "@id": "node/3717431888",
        "name": "Department stores",
        "shop": "department_store"
      },
      "geometry": {
        "type": "Point",
        "coordinates": [
          77.5783966,
          34.1562243
        ]
      },
      "id": "node/3717431888"
    },
    {
      "type": "Feature",
      "properties": {
        "@id": "node/3734782499",
        "name": "Mani Maligai Store",
        "shop": "department_store"
      },
      "geometry": {
        "type": "Point",
        "coordinates": [
          78.7323241,
          10.8055678
        ]
      },
      "id": "node/3734782499"
    },
    {
      "type": "Feature",
      "properties": {
        "@id": "node/3760637875",
        "name": "Coolwell Electrix",
        "shop": "department_store"
      },
      "geometry": {
        "type": "Point",
        "coordinates": [
          77.6021439,
          12.9762305
        ]
      },
      "id": "node/3760637875"
    },
    {
      "type": "Feature",
      "properties": {
        "@id": "node/3815471779",
        "name": "Supplyco Supermarket",
        "shop": "department_store"
      },
      "geometry": {
        "type": "Point",
        "coordinates": [
          75.5034594,
          11.8277738
        ]
      },
      "id": "node/3815471779"
    },
    {
      "type": "Feature",
      "properties": {
        "@id": "node/3941717731",
        "name": "Munnar Spices",
        "shop": "department_store"
      },
      "geometry": {
        "type": "Point",
        "coordinates": [
          76.9773617,
          8.3906213
        ]
      },
      "id": "node/3941717731"
    },
    {
      "type": "Feature",
      "properties": {
        "@id": "node/3941728097",
        "name": "Syam Stores",
        "shop": "department_store"
      },
      "geometry": {
        "type": "Point",
        "coordinates": [
          76.9773774,
          8.3905294
        ]
      },
      "id": "node/3941728097"
    },
    {
      "type": "Feature",
      "properties": {
        "@id": "node/3941730086",
        "name": "Valsa Vegetable Store",
        "shop": "department_store"
      },
      "geometry": {
        "type": "Point",
        "coordinates": [
          76.9772758,
          8.3896136
        ]
      },
      "id": "node/3941730086"
    },
    {
      "type": "Feature",
      "properties": {
        "@id": "node/3995048781",
        "addr:city": "Bangalore",
        "addr:housenumber": "1669",
        "addr:postcode": "560069",
        "addr:street": "39 Cross",
        "name": "We Mart Super Market",
        "name:kn": "ನಾವು ಮಾರ್ಟ್ ಸೂಪರ್ ಮಾರುಕಟ್ಟೆ",
        "opening_hours": "08:00-22:30",
        "operator": "Private",
        "phone": "080 2653 0306",
        "shop": "department_store"
      },
      "geometry": {
        "type": "Point",
        "coordinates": [
          77.5972998,
          12.9204291
        ]
      },
      "id": "node/3995048781"
    },
    {
      "type": "Feature",
      "properties": {
        "@id": "node/4077860873",
        "name": "Thattakathu Store",
        "phone": "+91-9048612150; +91-496-2666341",
        "shop": "department_store"
      },
      "geometry": {
        "type": "Point",
        "coordinates": [
          75.8044625,
          11.6397991
        ]
      },
      "id": "node/4077860873"
    },
    {
      "type": "Feature",
      "properties": {
        "@id": "node/4085923814",
        "name": "Maveli Store",
        "operator": "Supplyco",
        "shop": "department_store"
      },
      "geometry": {
        "type": "Point",
        "coordinates": [
          75.8041925,
          11.6400133
        ]
      },
      "id": "node/4085923814"
    },
    {
      "type": "Feature",
      "properties": {
        "@id": "node/4141343712",
        "name": "Vishal Mega Mart",
        "shop": "department_store"
      },
      "geometry": {
        "type": "Point",
        "coordinates": [
          75.7732925,
          26.969883
        ]
      },
      "id": "node/4141343712"
    },
    {
      "type": "Feature",
      "properties": {
        "@id": "node/4153840389",
        "name": "KSN Super Market",
        "opening_hours": "Mo-Su 10:00-22:00",
        "shop": "department_store"
      },
      "geometry": {
        "type": "Point",
        "coordinates": [
          80.2244867,
          13.0312585
        ]
      },
      "id": "node/4153840389"
    },
    {
      "type": "Feature",
      "properties": {
        "@id": "node/4161672691",
        "name": "A One Super Market",
        "shop": "department_store"
      },
      "geometry": {
        "type": "Point",
        "coordinates": [
          80.0706391,
          12.8674108
        ]
      },
      "id": "node/4161672691"
    },
    {
      "type": "Feature",
      "properties": {
        "@id": "node/4163014390",
        "addr:street": "PWD Road",
        "name": "More",
        "shop": "department_store"
      },
      "geometry": {
        "type": "Point",
        "coordinates": [
          77.6804914,
          12.9927225
        ]
      },
      "id": "node/4163014390"
    },
    {
      "type": "Feature",
      "properties": {
        "@id": "node/4171665591",
        "name": "MRC Defence canteen",
        "shop": "department_store"
      },
      "geometry": {
        "type": "Point",
        "coordinates": [
          76.7932894,
          11.3625087
        ]
      },
      "id": "node/4171665591"
    },
    {
      "type": "Feature",
      "properties": {
        "@id": "node/4172896093",
        "addr:street": "new bairhana",
        "name": "satendra general store",
        "shop": "department_store"
      },
      "geometry": {
        "type": "Point",
        "coordinates": [
          81.8606505,
          25.4396684
        ]
      },
      "id": "node/4172896093"
    },
    {
      "type": "Feature",
      "properties": {
        "@id": "node/4184995574",
        "name": "heritage",
        "shop": "department_store"
      },
      "geometry": {
        "type": "Point",
        "coordinates": [
          81.8066228,
          17.0066562
        ]
      },
      "id": "node/4184995574"
    },
    {
      "type": "Feature",
      "properties": {
        "@id": "node/4191585201",
        "name": "Plastic Wares Store",
        "shop": "department_store"
      },
      "geometry": {
        "type": "Point",
        "coordinates": [
          75.7724605,
          13.3160701
        ]
      },
      "id": "node/4191585201"
    },
    {
      "type": "Feature",
      "properties": {
        "@id": "node/4212577538",
        "name": "Daily needs",
        "shop": "department_store"
      },
      "geometry": {
        "type": "Point",
        "coordinates": [
          77.0350366,
          28.5147575
        ]
      },
      "id": "node/4212577538"
    },
    {
      "type": "Feature",
      "properties": {
        "@id": "node/4240851701",
        "name": "Day to Day",
        "shop": "department_store"
      },
      "geometry": {
        "type": "Point",
        "coordinates": [
          76.9021316,
          11.0249685
        ]
      },
      "id": "node/4240851701"
    },
    {
      "type": "Feature",
      "properties": {
        "@id": "node/4243026507",
        "addr:street": "Pollachi - Dharapuram - Mulanur - Karur Road",
        "name": "Ganesh Grocery Market",
        "shop": "department_store"
      },
      "geometry": {
        "type": "Point",
        "coordinates": [
          77.8426368,
          10.8492688
        ]
      },
      "id": "node/4243026507"
    },
    {
      "type": "Feature",
      "properties": {
        "@id": "node/4252736996",
        "name": "Goa Sahakar Bhandar",
        "shop": "department_store"
      },
      "geometry": {
        "type": "Point",
        "coordinates": [
          73.81148,
          15.586949
        ]
      },
      "id": "node/4252736996"
    },
    {
      "type": "Feature",
      "properties": {
        "@id": "node/4252737091",
        "name": "Vithal D Souza",
        "shop": "department_store"
      },
      "geometry": {
        "type": "Point",
        "coordinates": [
          73.80894,
          15.59197
        ]
      },
      "id": "node/4252737091"
    },
    {
      "type": "Feature",
      "properties": {
        "@id": "node/4252792503",
        "name": "Fabindia",
        "shop": "department_store"
      },
      "geometry": {
        "type": "Point",
        "coordinates": [
          73.9642046,
          15.2847421
        ]
      },
      "id": "node/4252792503"
    },
    {
      "type": "Feature",
      "properties": {
        "@id": "node/4252792504",
        "name": "Miranda Store",
        "shop": "department_store"
      },
      "geometry": {
        "type": "Point",
        "coordinates": [
          73.76292,
          15.542554
        ]
      },
      "id": "node/4252792504"
    },
    {
      "type": "Feature",
      "properties": {
        "@id": "node/4252801400",
        "name": "Ghode Vaman Narayan",
        "shop": "department_store"
      },
      "geometry": {
        "type": "Point",
        "coordinates": [
          73.9542854,
          15.2763414
        ]
      },
      "id": "node/4252801400"
    },
    {
      "type": "Feature",
      "properties": {
        "@id": "node/4252801401",
        "name": "Kamat's Megamart",
        "shop": "department_store"
      },
      "geometry": {
        "type": "Point",
        "coordinates": [
          73.8073063,
          15.4676084
        ]
      },
      "id": "node/4252801401"
    },
    {
      "type": "Feature",
      "properties": {
        "@id": "node/4252801892",
        "name": "Lord & Taylor",
        "shop": "department_store"
      },
      "geometry": {
        "type": "Point",
        "coordinates": [
          73.95938,
          15.290781
        ]
      },
      "id": "node/4252801892"
    },
    {
      "type": "Feature",
      "properties": {
        "@id": "node/4252801992",
        "name": "Padaria Zubeid",
        "shop": "department_store"
      },
      "geometry": {
        "type": "Point",
        "coordinates": [
          73.8282748,
          15.498556
        ]
      },
      "id": "node/4252801992"
    },
    {
      "type": "Feature",
      "properties": {
        "@id": "node/4258613289",
        "addr:street": "Maruthamalai Road",
        "name": "Kovai Pazhamudir Nilayam",
        "shop": "department_store"
      },
      "geometry": {
        "type": "Point",
        "coordinates": [
          76.910828,
          11.0233164
        ]
      },
      "id": "node/4258613289"
    },
    {
      "type": "Feature",
      "properties": {
        "@id": "node/4259957291",
        "name": "Sonata",
        "shop": "department_store"
      },
      "geometry": {
        "type": "Point",
        "coordinates": [
          73.8092991,
          15.477303
        ]
      },
      "id": "node/4259957291"
    },
    {
      "type": "Feature",
      "properties": {
        "@id": "node/4266324393",
        "addr:postcode": "560100",
        "addr:street": "Anantha Nagar Road",
        "name": "Nandini Dairy Store",
        "name:kn": "ನಂದಿನಿ ಡೈರಿ",
        "shop": "department_store"
      },
      "geometry": {
        "type": "Point",
        "coordinates": [
          77.6845263,
          12.8357249
        ]
      },
      "id": "node/4266324393"
    },
    {
      "type": "Feature",
      "properties": {
        "@id": "node/4269305689",
        "name": "Big Bazaar",
        "shop": "department_store"
      },
      "geometry": {
        "type": "Point",
        "coordinates": [
          73.9684237,
          15.271539
        ]
      },
      "id": "node/4269305689"
    },
    {
      "type": "Feature",
      "properties": {
        "@id": "node/4272785689",
        "name": "Health & Glow",
        "shop": "department_store"
      },
      "geometry": {
        "type": "Point",
        "coordinates": [
          77.6357076,
          12.9783915
        ]
      },
      "id": "node/4272785689"
    },
    {
      "type": "Feature",
      "properties": {
        "@id": "node/4272786389",
        "addr:street": "Chinmaya Mission Hospital Road",
        "name": "Celebrations",
        "phone": "9900114689",
        "shop": "department_store"
      },
      "geometry": {
        "type": "Point",
        "coordinates": [
          77.6349978,
          12.9780992
        ]
      },
      "id": "node/4272786389"
    },
    {
      "type": "Feature",
      "properties": {
        "@id": "node/4273202896",
        "addr:street": "Cherpulassery-Pattambi-Koppam Road",
        "email": "royalfashionworld@gmail.com",
        "name": "Royal Fashion World Madathiparambu Cherpulassey",
        "opening_hours": "Mo-Su 09:00-22:00",
        "phone": "+91-9947036829",
        "shop": "department_store"
      },
      "geometry": {
        "type": "Point",
        "coordinates": [
          76.3014495,
          10.8752462
        ]
      },
      "id": "node/4273202896"
    },
    {
      "type": "Feature",
      "properties": {
        "@id": "node/4277722989",
        "addr:street": "East Venkataswamy Road",
        "name": "Green Basket",
        "shop": "department_store"
      },
      "geometry": {
        "type": "Point",
        "coordinates": [
          76.9470525,
          11.0117772
        ]
      },
      "id": "node/4277722989"
    },
    {
      "type": "Feature",
      "properties": {
        "@id": "node/4278011092",
        "addr:postcode": "524003",
        "addr:street": "Grand Trunk Road",
        "name": "MGB Felicity Mall",
        "shop": "department_store"
      },
      "geometry": {
        "type": "Point",
        "coordinates": [
          79.9672352,
          14.4321295
        ]
      },
      "id": "node/4278011092"
    },
    {
      "type": "Feature",
      "properties": {
        "@id": "node/4286285293",
        "name": "Groceries",
        "shop": "department_store"
      },
      "geometry": {
        "type": "Point",
        "coordinates": [
          77.5636893,
          13.0084103
        ]
      },
      "id": "node/4286285293"
    },
    {
      "type": "Feature",
      "properties": {
        "@id": "node/4294123095",
        "addr:street": "Ahmedabad Palanpur State Highway SH41",
        "name": "Mangal murti",
        "shop": "department_store"
      },
      "geometry": {
        "type": "Point",
        "coordinates": [
          72.382262,
          23.6420225
        ]
      },
      "id": "node/4294123095"
    },
    {
      "type": "Feature",
      "properties": {
        "@id": "node/4294220289",
        "addr:street": "Asharam Road",
        "name": "new sakti senetory",
        "shop": "department_store"
      },
      "geometry": {
        "type": "Point",
        "coordinates": [
          72.4054969,
          23.6151968
        ]
      },
      "id": "node/4294220289"
    },
    {
      "type": "Feature",
      "properties": {
        "@id": "node/4295512691",
        "name": "amul sagar parlor",
        "shop": "department_store"
      },
      "geometry": {
        "type": "Point",
        "coordinates": [
          72.044978,
          23.4985933
        ]
      },
      "id": "node/4295512691"
    },
    {
      "type": "Feature",
      "properties": {
        "@id": "node/4295528893",
        "addr:street": "modhera",
        "name": "Toran cafeteria",
        "opening_hours": "Fr-We 10:00-22:00",
        "shop": "department_store"
      },
      "geometry": {
        "type": "Point",
        "coordinates": [
          72.135314,
          23.5825809
        ]
      },
      "id": "node/4295528893"
    },
    {
      "type": "Feature",
      "properties": {
        "@id": "node/4296013593",
        "name": "Kakora Mall",
        "shop": "department_store"
      },
      "geometry": {
        "type": "Point",
        "coordinates": [
          73.983039,
          15.516275
        ]
      },
      "id": "node/4296013593"
    },
    {
      "type": "Feature",
      "properties": {
        "@id": "node/4296021290",
        "addr:postcode": "384002",
        "addr:street": "Ahmedabad Palanpur State Highway SH41",
        "name": "Sanket india",
        "shop": "department_store"
      },
      "geometry": {
        "type": "Point",
        "coordinates": [
          72.38113,
          23.6027877
        ]
      },
      "id": "node/4296021290"
    },
    {
      "type": "Feature",
      "properties": {
        "@id": "node/4296060592",
        "addr:street": "Ahmedabad Palanpur State Highway SH41",
        "name": "Safal",
        "shop": "department_store"
      },
      "geometry": {
        "type": "Point",
        "coordinates": [
          72.3782374,
          23.5934308
        ]
      },
      "id": "node/4296060592"
    },
    {
      "type": "Feature",
      "properties": {
        "@id": "node/4296107391",
        "name": "Ramkrishna market",
        "shop": "department_store"
      },
      "geometry": {
        "type": "Point",
        "coordinates": [
          72.3875517,
          23.5966146
        ]
      },
      "id": "node/4296107391"
    },
    {
      "type": "Feature",
      "properties": {
        "@id": "node/4296107590",
        "name": "Hardik sales agency",
        "shop": "department_store"
      },
      "geometry": {
        "type": "Point",
        "coordinates": [
          72.3801767,
          23.5978822
        ]
      },
      "id": "node/4296107590"
    },
    {
      "type": "Feature",
      "properties": {
        "@id": "node/4296126392",
        "addr:street": "Ahmedabad Palanpur State Highway SH41",
        "name": "Congress bhavan",
        "shop": "department_store"
      },
      "geometry": {
        "type": "Point",
        "coordinates": [
          72.3929623,
          23.6054473
        ]
      },
      "id": "node/4296126392"
    },
    {
      "type": "Feature",
      "properties": {
        "@id": "node/4296154390",
        "addr:street": "Civil road",
        "name": "Mulki bhavan",
        "shop": "department_store"
      },
      "geometry": {
        "type": "Point",
        "coordinates": [
          72.3907493,
          23.6057856
        ]
      },
      "id": "node/4296154390"
    },
    {
      "type": "Feature",
      "properties": {
        "@id": "node/4296273589",
        "addr:street": "chhatral road",
        "name": "Mahalaxmi store datto",
        "shop": "department_store"
      },
      "geometry": {
        "type": "Point",
        "coordinates": [
          72.4383351,
          23.2986822
        ]
      },
      "id": "node/4296273589"
    },
    {
      "type": "Feature",
      "properties": {
        "@id": "node/4296617907",
        "addr:street": "ahmedabad -palanpur",
        "name": "dk complex",
        "shop": "department_store"
      },
      "geometry": {
        "type": "Point",
        "coordinates": [
          72.4400031,
          23.283421
        ]
      },
      "id": "node/4296617907"
    },
    {
      "type": "Feature",
      "properties": {
        "@id": "node/4296644091",
        "addr:street": "bazar",
        "name": "JK chemist",
        "shop": "department_store"
      },
      "geometry": {
        "type": "Point",
        "coordinates": [
          72.3906866,
          23.6019933
        ]
      },
      "id": "node/4296644091"
    },
    {
      "type": "Feature",
      "properties": {
        "@id": "node/4296689389",
        "addr:street": "Modhera road",
        "name": "sonal bags",
        "shop": "department_store"
      },
      "geometry": {
        "type": "Point",
        "coordinates": [
          72.3906524,
          23.6020662
        ]
      },
      "id": "node/4296689389"
    },
    {
      "type": "Feature",
      "properties": {
        "@id": "node/4296725192",
        "name": "Classic empire",
        "shop": "department_store"
      },
      "geometry": {
        "type": "Point",
        "coordinates": [
          72.3793243,
          23.5991805
        ]
      },
      "id": "node/4296725192"
    },
    {
      "type": "Feature",
      "properties": {
        "@id": "node/4297486896",
        "addr:street": "Jail road",
        "name": "Vishnu provision stores",
        "shop": "department_store"
      },
      "geometry": {
        "type": "Point",
        "coordinates": [
          72.3858751,
          23.6087105
        ]
      },
      "id": "node/4297486896"
    },
    {
      "type": "Feature",
      "properties": {
        "@id": "node/4297624992",
        "addr:street": "T.B.Road",
        "name": "HK traders",
        "shop": "department_store"
      },
      "geometry": {
        "type": "Point",
        "coordinates": [
          72.3884718,
          23.5967411
        ]
      },
      "id": "node/4297624992"
    },
    {
      "type": "Feature",
      "properties": {
        "@id": "node/4297816017",
        "addr:housenumber": "00 toranvadi",
        "addr:postcode": "384001",
        "addr:street": "station road;Ahmedabad Palanpur State Highway SH41",
        "building": "yes",
        "name": "Khanderav market",
        "opening_hours": "Mo-Su 10:00-22:00",
        "shop": "department_store"
      },
      "geometry": {
        "type": "Point",
        "coordinates": [
          72.3908597,
          23.6026362
        ]
      },
      "id": "node/4297816017"
    },
    {
      "type": "Feature",
      "properties": {
        "@id": "node/4297875708",
        "addr:street": "station road",
        "name": "Dal mill",
        "shop": "department_store"
      },
      "geometry": {
        "type": "Point",
        "coordinates": [
          72.3927971,
          23.6024621
        ]
      },
      "id": "node/4297875708"
    },
    {
      "type": "Feature",
      "properties": {
        "@id": "node/4297875807",
        "addr:street": "St road",
        "name": "Janta super market",
        "shop": "department_store"
      },
      "geometry": {
        "type": "Point",
        "coordinates": [
          72.3898903,
          23.6058806
        ]
      },
      "id": "node/4297875807"
    },
    {
      "type": "Feature",
      "properties": {
        "@id": "node/4298723193",
        "addr:street": "Ahmedabad Palanpur State Highway SH41",
        "name": "Someshwar industrial park",
        "shop": "department_store"
      },
      "geometry": {
        "type": "Point",
        "coordinates": [
          72.3931882,
          23.438169
        ]
      },
      "id": "node/4298723193"
    },
    {
      "type": "Feature",
      "properties": {
        "@id": "node/4298747894",
        "addr:street": "Ahmedabad Palanpur State Highway SH41",
        "name": "Vikram palace",
        "shop": "department_store"
      },
      "geometry": {
        "type": "Point",
        "coordinates": [
          72.3796066,
          23.5961157
        ]
      },
      "id": "node/4298747894"
    },
    {
      "type": "Feature",
      "properties": {
        "@id": "node/4299358291",
        "addr:street": "Ahmedabad Palanpur State Highway SH41",
        "name": "Jay ambe avenue",
        "shop": "department_store"
      },
      "geometry": {
        "type": "Point",
        "coordinates": [
          72.3972505,
          23.4829867
        ]
      },
      "id": "node/4299358291"
    },
    {
      "type": "Feature",
      "properties": {
        "@id": "node/4299926589",
        "addr:postcode": "384002",
        "addr:street": "Ahmedabad Palanpur State Highway SH41",
        "name": "Prabhu complex",
        "shop": "department_store"
      },
      "geometry": {
        "type": "Point",
        "coordinates": [
          72.3792905,
          23.597549
        ]
      },
      "id": "node/4299926589"
    },
    {
      "type": "Feature",
      "properties": {
        "@id": "node/4300722491",
        "addr:street": "dharam cinema road",
        "name": "Hub town complex",
        "shop": "department_store"
      },
      "geometry": {
        "type": "Point",
        "coordinates": [
          72.3830104,
          23.5932952
        ]
      },
      "id": "node/4300722491"
    },
    {
      "type": "Feature",
      "properties": {
        "@id": "node/4301504292",
        "addr:postcode": "384002",
        "addr:street": "Ahmedabad Palanpur State Highway SH41",
        "name": "Madhuvan complex",
        "shop": "department_store"
      },
      "geometry": {
        "type": "Point",
        "coordinates": [
          72.3810672,
          23.6023007
        ]
      },
      "id": "node/4301504292"
    },
    {
      "type": "Feature",
      "properties": {
        "@id": "node/4301504293",
        "addr:street": "Ahmedabad Palanpur State Highway SH41",
        "name": "ketul chambers",
        "shop": "department_store"
      },
      "geometry": {
        "type": "Point",
        "coordinates": [
          72.381095,
          23.6018767
        ]
      },
      "id": "node/4301504293"
    },
    {
      "type": "Feature",
      "properties": {
        "@id": "node/4303553430",
        "addr:street": "Ahmedabad Palanpur State Highway SH41",
        "name": "Silver Complex",
        "shop": "department_store"
      },
      "geometry": {
        "type": "Point",
        "coordinates": [
          72.380646,
          23.6009071
        ]
      },
      "id": "node/4303553430"
    },
    {
      "type": "Feature",
      "properties": {
        "@id": "node/4304371090",
        "addr:street": "dharam cinema road",
        "name": "Hubtown complex",
        "shop": "department_store"
      },
      "geometry": {
        "type": "Point",
        "coordinates": [
          72.3833859,
          23.5930685
        ]
      },
      "id": "node/4304371090"
    },
    {
      "type": "Feature",
      "properties": {
        "@id": "node/4305471991",
        "name": "Jaisurya's",
        "shop": "department_store"
      },
      "geometry": {
        "type": "Point",
        "coordinates": [
          78.1669614,
          11.6580349
        ]
      },
      "id": "node/4305471991"
    },
    {
      "type": "Feature",
      "properties": {
        "@id": "node/4305484391",
        "name": "Jaisurya's",
        "shop": "department_store"
      },
      "geometry": {
        "type": "Point",
        "coordinates": [
          78.1434309,
          11.6768087
        ]
      },
      "id": "node/4305484391"
    },
    {
      "type": "Feature",
      "properties": {
        "@id": "node/4306892796",
        "addr:street": "Krishna cinema road",
        "name": "Old Malgodown (closed)",
        "shop": "department_store"
      },
      "geometry": {
        "type": "Point",
        "coordinates": [
          72.3879359,
          23.5984315
        ]
      },
      "id": "node/4306892796"
    },
    {
      "type": "Feature",
      "properties": {
        "@id": "node/4307362199",
        "addr:postcode": "384002",
        "addr:street": "T.B.Road",
        "name": " Sidhivinayak Complex",
        "shop": "department_store"
      },
      "geometry": {
        "type": "Point",
        "coordinates": [
          72.3879879,
          23.5953716
        ]
      },
      "id": "node/4307362199"
    },
    {
      "type": "Feature",
      "properties": {
        "@id": "node/4307452589",
        "addr:street": "Ahmedabad Palanpur State Highway SH41",
        "name": "Pramukh enclave",
        "shop": "department_store"
      },
      "geometry": {
        "type": "Point",
        "coordinates": [
          72.3687048,
          23.5810007
        ]
      },
      "id": "node/4307452589"
    },
    {
      "type": "Feature",
      "properties": {
        "@id": "node/4308248277",
        "addr:street": "Ahmedabad Palanpur State Highway SH41",
        "name": "Pruthvi complex",
        "shop": "department_store"
      },
      "geometry": {
        "type": "Point",
        "coordinates": [
          72.3763164,
          23.588335
        ]
      },
      "id": "node/4308248277"
    },
    {
      "type": "Feature",
      "properties": {
        "@id": "node/4308319701",
        "addr:street": "West Jones Road",
        "shop": "department_store"
      },
      "geometry": {
        "type": "Point",
        "coordinates": [
          80.2144147,
          13.0242545
        ]
      },
      "id": "node/4308319701"
    },
    {
      "type": "Feature",
      "properties": {
        "@id": "node/4308319794",
        "addr:street": "West Jones Road",
        "name": "Mutton Shop",
        "shop": "department_store"
      },
      "geometry": {
        "type": "Point",
        "coordinates": [
          80.2137538,
          13.0241278
        ]
      },
      "id": "node/4308319794"
    },
    {
      "type": "Feature",
      "properties": {
        "@id": "node/4308351091",
        "name": "Vishal Mega Mart",
        "shop": "department_store"
      },
      "geometry": {
        "type": "Point",
        "coordinates": [
          73.8240725,
          15.4971592
        ]
      },
      "id": "node/4308351091"
    },
    {
      "type": "Feature",
      "properties": {
        "@id": "node/4313246197",
        "name": "Muthu Stores",
        "shop": "department_store"
      },
      "geometry": {
        "type": "Point",
        "coordinates": [
          80.1590885,
          13.0294749
        ]
      },
      "id": "node/4313246197"
    },
    {
      "type": "Feature",
      "properties": {
        "@id": "node/4314330392",
        "name": "Homecentre",
        "shop": "department_store"
      },
      "geometry": {
        "type": "Point",
        "coordinates": [
          77.6118198,
          12.966707
        ]
      },
      "id": "node/4314330392"
    },
    {
      "type": "Feature",
      "properties": {
        "@id": "node/4315325991",
        "name": "Raja Stores",
        "shop": "department_store"
      },
      "geometry": {
        "type": "Point",
        "coordinates": [
          80.1592223,
          13.029866
        ]
      },
      "id": "node/4315325991"
    },
    {
      "type": "Feature",
      "properties": {
        "@id": "node/4324640489",
        "name": "Big Bazaar",
        "shop": "department_store"
      },
      "geometry": {
        "type": "Point",
        "coordinates": [
          73.8273445,
          15.5259227
        ]
      },
      "id": "node/4324640489"
    },
    {
      "type": "Feature",
      "properties": {
        "@id": "node/4324873029",
        "name": "Shopper's Stop",
        "shop": "department_store"
      },
      "geometry": {
        "type": "Point",
        "coordinates": [
          73.8273461,
          15.5254491
        ]
      },
      "id": "node/4324873029"
    },
    {
      "type": "Feature",
      "properties": {
        "@id": "node/4335030598",
        "name": "Lucky Karyana store",
        "shop": "department_store"
      },
      "geometry": {
        "type": "Point",
        "coordinates": [
          76.0345899,
          30.8601969
        ]
      },
      "id": "node/4335030598"
    },
    {
      "type": "Feature",
      "properties": {
        "@id": "node/4355260199",
        "name": "Teles Megastore",
        "shop": "department_store"
      },
      "geometry": {
        "type": "Point",
        "coordinates": [
          73.8143403,
          15.3995556
        ]
      },
      "id": "node/4355260199"
    },
    {
      "type": "Feature",
      "properties": {
        "@id": "node/4359053697",
        "name:en": "welcome  stores",
        "shop": "department_store"
      },
      "geometry": {
        "type": "Point",
        "coordinates": [
          80.1831736,
          13.0260253
        ]
      },
      "id": "node/4359053697"
    },
    {
      "type": "Feature",
      "properties": {
        "@id": "node/4361215489",
        "addr:city": "Panjim",
        "addr:postcode": "403001",
        "addr:street": "18th June Road",
        "name": "Bombay Bazaar",
        "name:en": "Bombay Bazaar",
        "opening_hours": "Mo-Su 10:00-20:30",
        "shop": "department_store"
      },
      "geometry": {
        "type": "Point",
        "coordinates": [
          73.8261636,
          15.4978476
        ]
      },
      "id": "node/4361215489"
    },
    {
      "type": "Feature",
      "properties": {
        "@id": "node/4361322424",
        "name:en": "store",
        "shop": "department_store"
      },
      "geometry": {
        "type": "Point",
        "coordinates": [
          75.8172708,
          30.9258901
        ]
      },
      "id": "node/4361322424"
    },
    {
      "type": "Feature",
      "properties": {
        "@id": "node/4361744355",
        "name": "Krishna Deparment Store",
        "shop": "department_store"
      },
      "geometry": {
        "type": "Point",
        "coordinates": [
          76.305433,
          10.0044015
        ]
      },
      "id": "node/4361744355"
    },
    {
      "type": "Feature",
      "properties": {
        "@id": "node/4362999889",
        "name:en": "selvam stores",
        "shop": "department_store"
      },
      "geometry": {
        "type": "Point",
        "coordinates": [
          80.1841744,
          13.0226712
        ]
      },
      "id": "node/4362999889"
    },
    {
      "type": "Feature",
      "properties": {
        "@id": "node/4363112689",
        "addr:street": "pansari bazar",
        "name": "Ashols general store",
        "shop": "department_store"
      },
      "geometry": {
        "type": "Point",
        "coordinates": [
          70.9148583,
          26.9135974
        ]
      },
      "id": "node/4363112689"
    },
    {
      "type": "Feature",
      "properties": {
        "@id": "node/4364152706",
        "name": "More Super Market",
        "name:en": "More Super Market",
        "shop": "department_store"
      },
      "geometry": {
        "type": "Point",
        "coordinates": [
          73.0752107,
          19.0342344
        ]
      },
      "id": "node/4364152706"
    },
    {
      "type": "Feature",
      "properties": {
        "@id": "node/4364163004",
        "name": "Kitchen Wold",
        "name:en": "Kitchen Wold",
        "shop": "department_store"
      },
      "geometry": {
        "type": "Point",
        "coordinates": [
          73.0747279,
          19.0341627
        ]
      },
      "id": "node/4364163004"
    },
    {
      "type": "Feature",
      "properties": {
        "@id": "node/4368307997",
        "name:en": "Chaman Karyana Store",
        "shop": "department_store"
      },
      "geometry": {
        "type": "Point",
        "coordinates": [
          76.3440056,
          30.8146058
        ]
      },
      "id": "node/4368307997"
    },
    {
      "type": "Feature",
      "properties": {
        "@id": "node/4371170735",
        "name:en": "Happy Store",
        "shop": "department_store"
      },
      "geometry": {
        "type": "Point",
        "coordinates": [
          75.8203864,
          30.8659518
        ]
      },
      "id": "node/4371170735"
    },
    {
      "type": "Feature",
      "properties": {
        "@id": "node/4371186509",
        "name:en": "Aggarwal Karyana Store",
        "shop": "department_store"
      },
      "geometry": {
        "type": "Point",
        "coordinates": [
          75.8142036,
          30.8723022
        ]
      },
      "id": "node/4371186509"
    },
    {
      "type": "Feature",
      "properties": {
        "@id": "node/4371299492",
        "name:en": "Sharma Confectionary",
        "shop": "department_store"
      },
      "geometry": {
        "type": "Point",
        "coordinates": [
          75.8329456,
          30.8873892
        ]
      },
      "id": "node/4371299492"
    },
    {
      "type": "Feature",
      "properties": {
        "@id": "node/4371304893",
        "name:en": "Singla Super Store",
        "shop": "department_store"
      },
      "geometry": {
        "type": "Point",
        "coordinates": [
          75.8323591,
          30.8895509
        ]
      },
      "id": "node/4371304893"
    },
    {
      "type": "Feature",
      "properties": {
        "@id": "node/4371336289",
        "addr:city": "Ludhiana",
        "addr:street": "Phullanwal Road",
        "name": "Ravi Karyana Store",
        "name:en": "Ravi",
        "payment:cash": "yes",
        "shop": "department_store"
      },
      "geometry": {
        "type": "Point",
        "coordinates": [
          75.8185181,
          30.8679875
        ]
      },
      "id": "node/4371336289"
    },
    {
      "type": "Feature",
      "properties": {
        "@id": "node/4377691089",
        "addr:postcode": "781020",
        "addr:street": "Lakhimandir Path M T Road",
        "name": "Rajlaxmi  Store",
        "name:en": "Rajlaxmi  Store",
        "shop": "department_store"
      },
      "geometry": {
        "type": "Point",
        "coordinates": [
          91.8297918,
          26.1785284
        ]
      },
      "id": "node/4377691089"
    },
    {
      "type": "Feature",
      "properties": {
        "@id": "node/4386500097",
        "name": "Corone Fresh Spices and Dry Fruits",
        "shop": "department_store"
      },
      "geometry": {
        "type": "Point",
        "coordinates": [
          77.6035555,
          13.0253206
        ]
      },
      "id": "node/4386500097"
    },
    {
      "type": "Feature",
      "properties": {
        "@id": "node/4386500100",
        "name": "KGN Provision Store",
        "shop": "department_store"
      },
      "geometry": {
        "type": "Point",
        "coordinates": [
          77.6036609,
          13.0253614
        ]
      },
      "id": "node/4386500100"
    },
    {
      "type": "Feature",
      "properties": {
        "@id": "node/4386506492",
        "name": "Manjunatha Condiments",
        "shop": "department_store"
      },
      "geometry": {
        "type": "Point",
        "coordinates": [
          77.6031919,
          13.0240911
        ]
      },
      "id": "node/4386506492"
    },
    {
      "type": "Feature",
      "properties": {
        "@id": "node/4386506501",
        "name": "SR Consultant Real Estate",
        "shop": "department_store"
      },
      "geometry": {
        "type": "Point",
        "coordinates": [
          77.6040547,
          13.0265159
        ]
      },
      "id": "node/4386506501"
    },
    {
      "type": "Feature",
      "properties": {
        "@id": "node/4386506689",
        "name": "Darshan Traders",
        "shop": "department_store"
      },
      "geometry": {
        "type": "Point",
        "coordinates": [
          77.6028721,
          13.0234261
        ]
      },
      "id": "node/4386506689"
    },
    {
      "type": "Feature",
      "properties": {
        "@id": "node/4386506690",
        "name": "Shakti Traders",
        "shop": "department_store"
      },
      "geometry": {
        "type": "Point",
        "coordinates": [
          77.6034721,
          13.0248424
        ]
      },
      "id": "node/4386506690"
    },
    {
      "type": "Feature",
      "properties": {
        "@id": "node/4386506893",
        "name": "Sri Manjunath Pooja Stall",
        "shop": "department_store"
      },
      "geometry": {
        "type": "Point",
        "coordinates": [
          77.6034778,
          13.0249337
        ]
      },
      "id": "node/4386506893"
    },
    {
      "type": "Feature",
      "properties": {
        "@id": "node/4386506894",
        "name": "Guru",
        "shop": "department_store"
      },
      "geometry": {
        "type": "Point",
        "coordinates": [
          77.6035096,
          13.02502
        ]
      },
      "id": "node/4386506894"
    },
    {
      "type": "Feature",
      "properties": {
        "@id": "node/4386506991",
        "name": "Karnataka Provision Stores",
        "shop": "department_store"
      },
      "geometry": {
        "type": "Point",
        "coordinates": [
          77.6034489,
          13.0247965
        ]
      },
      "id": "node/4386506991"
    },
    {
      "type": "Feature",
      "properties": {
        "@id": "node/4391380392",
        "name": "Kannan Departmental Store",
        "shop": "department_store"
      },
      "geometry": {
        "type": "Point",
        "coordinates": [
          78.0725206,
          10.9603996
        ]
      },
      "id": "node/4391380392"
    },
    {
      "type": "Feature",
      "properties": {
        "@id": "node/4406406569",
        "shop": "department_store"
      },
      "geometry": {
        "type": "Point",
        "coordinates": [
          77.4047479,
          8.3331944
        ]
      },
      "id": "node/4406406569"
    },
    {
      "type": "Feature",
      "properties": {
        "@id": "node/4407597490",
        "addr:housenumber": "62",
        "addr:postcode": "143001",
        "addr:street": "Majitha Road",
        "name:en": "shiv shakti (RAMA) karyana store",
        "opening_hours": "Mo-Su 06:00-23:00",
        "operator": "Ram sharan",
        "phone": "9815109352",
        "shop": "department_store"
      },
      "geometry": {
        "type": "Point",
        "coordinates": [
          74.8907333,
          31.6674036
        ]
      },
      "id": "node/4407597490"
    },
    {
      "type": "Feature",
      "properties": {
        "@id": "node/4410476589",
        "addr:street": "Rath Road",
        "email": "sabyasachi.baral@gmail.com",
        "internet_access": "wlan",
        "name": "reliance fresh departmental store",
        "name:en": "reliance fresh departmental store",
        "name:hi": "2visi cube",
        "shop": "department_store"
      },
      "geometry": {
        "type": "Point",
        "coordinates": [
          85.827516,
          20.232601
        ]
      },
      "id": "node/4410476589"
    },
    {
      "type": "Feature",
      "properties": {
        "@id": "node/4411798697",
        "name:en": "Nilgiris",
        "shop": "department_store"
      },
      "geometry": {
        "type": "Point",
        "coordinates": [
          80.2197506,
          12.9774912
        ]
      },
      "id": "node/4411798697"
    },
    {
      "type": "Feature",
      "properties": {
        "@id": "node/4411841795",
        "name:en": "GANESH STORES",
        "shop": "department_store"
      },
      "geometry": {
        "type": "Point",
        "coordinates": [
          80.1833494,
          13.0280405
        ]
      },
      "id": "node/4411841795"
    },
    {
      "type": "Feature",
      "properties": {
        "@id": "node/4411853990",
        "addr:street": "2nd street",
        "name:en": "Sri venakteshwara stores",
        "shop": "department_store"
      },
      "geometry": {
        "type": "Point",
        "coordinates": [
          80.1848008,
          13.0230154
        ]
      },
      "id": "node/4411853990"
    },
    {
      "type": "Feature",
      "properties": {
        "@id": "node/4414952491",
        "name": "Harison",
        "name:en": "Harison",
        "shop": "department_store"
      },
      "geometry": {
        "type": "Point",
        "coordinates": [
          76.7825615,
          30.7598881
        ]
      },
      "id": "node/4414952491"
    },
    {
      "type": "Feature",
      "properties": {
        "@id": "node/4414976290",
        "name": "Bansal Brothers",
        "name:en": "Bansal Brothers",
        "shop": "department_store"
      },
      "geometry": {
        "type": "Point",
        "coordinates": [
          76.7825516,
          30.7599088
        ]
      },
      "id": "node/4414976290"
    },
    {
      "type": "Feature",
      "properties": {
        "@id": "node/4415983195",
        "name:en": "Kaveri Super Market",
        "shop": "department_store"
      },
      "geometry": {
        "type": "Point",
        "coordinates": [
          78.6763553,
          10.78315
        ]
      },
      "id": "node/4415983195"
    },
    {
      "type": "Feature",
      "properties": {
        "@id": "node/4420664531",
        "name": "Sri Balaji store",
        "shop": "department_store"
      },
      "geometry": {
        "type": "Point",
        "coordinates": [
          78.6970171,
          10.7453091
        ]
      },
      "id": "node/4420664531"
    },
    {
      "type": "Feature",
      "properties": {
        "@id": "node/4423172891",
        "name:en": "Ganga Super Market",
        "shop": "department_store"
      },
      "geometry": {
        "type": "Point",
        "coordinates": [
          78.6754911,
          10.782141
        ]
      },
      "id": "node/4423172891"
    },
    {
      "type": "Feature",
      "properties": {
        "@id": "node/4427748489",
        "addr:postcode": "403602",
        "addr:street": "Borda Fatorda Road",
        "name": "Fabindia",
        "opening_hours": "Mo-Su 10:00-20:00",
        "shop": "department_store",
        "website": "https://fabindia.com/"
      },
      "geometry": {
        "type": "Point",
        "coordinates": [
          73.9642355,
          15.2846628
        ]
      },
      "id": "node/4427748489"
    },
    {
      "type": "Feature",
      "properties": {
        "@id": "node/4429395189",
        "name:en": "Charolikar fataka shop",
        "shop": "department_store"
      },
      "geometry": {
        "type": "Point",
        "coordinates": [
          73.8645648,
          18.5204249
        ]
      },
      "id": "node/4429395189"
    },
    {
      "type": "Feature",
      "properties": {
        "@id": "node/4433085089",
        "name": "Heritage fresh",
        "name:en": "Heritage fresh",
        "shop": "department_store"
      },
      "geometry": {
        "type": "Point",
        "coordinates": [
          78.4926128,
          17.4097113
        ]
      },
      "id": "node/4433085089"
    },
    {
      "type": "Feature",
      "properties": {
        "@id": "node/4436560090",
        "name": "China bazar",
        "name:en": "China bazar",
        "shop": "department_store"
      },
      "geometry": {
        "type": "Point",
        "coordinates": [
          78.4923778,
          17.4083572
        ]
      },
      "id": "node/4436560090"
    },
    {
      "type": "Feature",
      "properties": {
        "@id": "node/4438975395",
        "addr:city": "Delhi",
        "addr:postcode": "110092",
        "shop": "department_store"
      },
      "geometry": {
        "type": "Point",
        "coordinates": [
          77.3087203,
          28.6280517
        ]
      },
      "id": "node/4438975395"
    },
    {
      "type": "Feature",
      "properties": {
        "@id": "node/4442267329",
        "name": "J V Shetty",
        "opening_hours": "Mo-Su 09:00-10:30",
        "shop": "department_store"
      },
      "geometry": {
        "type": "Point",
        "coordinates": [
          73.8489376,
          15.3882832
        ]
      },
      "id": "node/4442267329"
    },
    {
      "type": "Feature",
      "properties": {
        "@id": "node/4445398750",
        "addr:city": "Bengaluru",
        "addr:postcode": "560103",
        "addr:street": "Agra, Service Rd, Iblur Village, Bellandur",
        "name": "Aishwarya Departmental Store",
        "shop": "department_store"
      },
      "geometry": {
        "type": "Point",
        "coordinates": [
          77.6627275,
          12.9221364
        ]
      },
      "id": "node/4445398750"
    },
    {
      "type": "Feature",
      "properties": {
        "@id": "node/4446990610",
        "addr:city": "Bengaluru",
        "addr:postcode": "560102",
        "addr:street": "5th Main, Agara Post, Sarjapur Main Rd, Ibbaluru, Iblur Village, Bellandur",
        "name": "Sri Venkateswara Provisions Store",
        "phone": "+91 98805 83577",
        "shop": "department_store"
      },
      "geometry": {
        "type": "Point",
        "coordinates": [
          77.663626,
          12.9217659
        ]
      },
      "id": "node/4446990610"
    },
    {
      "type": "Feature",
      "properties": {
        "@id": "node/4456269594",
        "addr:postcode": "560062",
        "addr:street": "Chunchagatta Main Raod",
        "name": "Bhuvaneshwari Traders",
        "name:en": "Bhuvaneshwari Traders",
        "shop": "department_store"
      },
      "geometry": {
        "type": "Point",
        "coordinates": [
          77.5696076,
          12.8830444
        ]
      },
      "id": "node/4456269594"
    },
    {
      "type": "Feature",
      "properties": {
        "@id": "node/4456678391",
        "name": "Mahalakshmi Provision Store",
        "name:en": "Mahalakshmi Provision Store",
        "shop": "department_store"
      },
      "geometry": {
        "type": "Point",
        "coordinates": [
          77.5714748,
          12.8835026
        ]
      },
      "id": "node/4456678391"
    },
    {
      "type": "Feature",
      "properties": {
        "@id": "node/4472283792",
        "name": "D-Mart",
        "name:en": "D-Mart",
        "shop": "department_store"
      },
      "geometry": {
        "type": "Point",
        "coordinates": [
          72.9356947,
          20.583614
        ]
      },
      "id": "node/4472283792"
    },
    {
      "type": "Feature",
      "properties": {
        "@id": "node/4480996895",
        "name": "D Mart",
        "name:en": "D Mart",
        "name:hi": "D मार्ट",
        "shop": "department_store"
      },
      "geometry": {
        "type": "Point",
        "coordinates": [
          72.5761383,
          23.0680121
        ]
      },
      "id": "node/4480996895"
    },
    {
      "type": "Feature",
      "properties": {
        "@id": "node/4480996896",
        "name": "Relince Digital",
        "name:en": "Relince Digital",
        "shop": "department_store"
      },
      "geometry": {
        "type": "Point",
        "coordinates": [
          72.5758088,
          23.0680414
        ]
      },
      "id": "node/4480996896"
    },
    {
      "type": "Feature",
      "properties": {
        "@id": "node/4483279092",
        "addr:street": "Deverachikkanahalli Main Road",
        "name": "DMart",
        "name:en": "DMart",
        "name:kn": "ಡಿಮಾರ್ಟ್",
        "shop": "department_store",
        "toilets": "yes"
      },
      "geometry": {
        "type": "Point",
        "coordinates": [
          77.6219225,
          12.8959006
        ]
      },
      "id": "node/4483279092"
    },
    {
      "type": "Feature",
      "properties": {
        "@id": "node/4483401708",
        "name": "Relience Fresh",
        "shop": "department_store"
      },
      "geometry": {
        "type": "Point",
        "coordinates": [
          83.332702,
          17.7329418
        ]
      },
      "id": "node/4483401708"
    },
    {
      "type": "Feature",
      "properties": {
        "@id": "node/4483401980",
        "shop": "department_store"
      },
      "geometry": {
        "type": "Point",
        "coordinates": [
          83.3322226,
          17.7337151
        ]
      },
      "id": "node/4483401980"
    },
    {
      "type": "Feature",
      "properties": {
        "@id": "node/4483401983",
        "shop": "department_store"
      },
      "geometry": {
        "type": "Point",
        "coordinates": [
          83.3320857,
          17.7338684
        ]
      },
      "id": "node/4483401983"
    },
    {
      "type": "Feature",
      "properties": {
        "@id": "node/4483863293",
        "name": "Reliance store",
        "name:en": "Reliance store",
        "shop": "department_store"
      },
      "geometry": {
        "type": "Point",
        "coordinates": [
          77.1351148,
          28.7015222
        ]
      },
      "id": "node/4483863293"
    },
    {
      "type": "Feature",
      "properties": {
        "@id": "node/4516533598",
        "name:en": "Kumar's Grocery",
        "opening_hours": "Mo-Su 05:00-22:00",
        "shop": "department_store"
      },
      "geometry": {
        "type": "Point",
        "coordinates": [
          78.1440145,
          11.6188586
        ]
      },
      "id": "node/4516533598"
    },
    {
      "type": "Feature",
      "properties": {
        "@id": "node/4516854789",
        "addr:postcode": "560091",
        "addr:street": "Magadi Road",
        "name": "Kaveri Provision store",
        "name:en": "Kaveri Provision store",
        "shop": "department_store"
      },
      "geometry": {
        "type": "Point",
        "coordinates": [
          77.4796592,
          12.9853349
        ]
      },
      "id": "node/4516854789"
    },
    {
      "type": "Feature",
      "properties": {
        "@id": "node/4519367791",
        "name:en": "Farmers' & Grocers' Neighbourhood Market",
        "shop": "department_store"
      },
      "geometry": {
        "type": "Point",
        "coordinates": [
          73.7792851,
          18.5591087
        ]
      },
      "id": "node/4519367791"
    },
    {
      "type": "Feature",
      "properties": {
        "@id": "node/4520653091",
        "name:en": "Karyana Store",
        "shop": "department_store"
      },
      "geometry": {
        "type": "Point",
        "coordinates": [
          76.5050722,
          30.7902301
        ]
      },
      "id": "node/4520653091"
    },
    {
      "type": "Feature",
      "properties": {
        "@id": "node/4520654992",
        "name:en": "Sukhmani departmental store",
        "shop": "department_store"
      },
      "geometry": {
        "type": "Point",
        "coordinates": [
          76.5015168,
          30.7784713
        ]
      },
      "id": "node/4520654992"
    },
    {
      "type": "Feature",
      "properties": {
        "@id": "node/4525513589",
        "name:en": "Bhatia General Store",
        "shop": "department_store"
      },
      "geometry": {
        "type": "Point",
        "coordinates": [
          76.1931828,
          30.835309
        ]
      },
      "id": "node/4525513589"
    },
    {
      "type": "Feature",
      "properties": {
        "@id": "node/4534460690",
        "name:en": "Patanjali kendra",
        "shop": "department_store"
      },
      "geometry": {
        "type": "Point",
        "coordinates": [
          79.101485,
          21.1352727
        ]
      },
      "id": "node/4534460690"
    },
    {
      "type": "Feature",
      "properties": {
        "@id": "node/4534747005",
        "name:en": "Krishna dairy",
        "shop": "department_store"
      },
      "geometry": {
        "type": "Point",
        "coordinates": [
          77.0250087,
          20.6845729
        ]
      },
      "id": "node/4534747005"
    },
    {
      "type": "Feature",
      "properties": {
        "@id": "node/4535189244",
        "name:en": "SIVA SAKTHI",
        "shop": "department_store"
      },
      "geometry": {
        "type": "Point",
        "coordinates": [
          77.924346,
          11.0520862
        ]
      },
      "id": "node/4535189244"
    },
    {
      "type": "Feature",
      "properties": {
        "@id": "node/4535339594",
        "name": "Shapes and Shades",
        "name:en": "Shapes and Shades",
        "shop": "department_store"
      },
      "geometry": {
        "type": "Point",
        "coordinates": [
          77.6099944,
          12.9822919
        ]
      },
      "id": "node/4535339594"
    },
    {
      "type": "Feature",
      "properties": {
        "@id": "node/4539708795",
        "name:en": "Mamta",
        "shop": "department_store"
      },
      "geometry": {
        "type": "Point",
        "coordinates": [
          79.0989106,
          21.1310553
        ]
      },
      "id": "node/4539708795"
    },
    {
      "type": "Feature",
      "properties": {
        "@id": "node/4539712689",
        "shop": "department_store"
      },
      "geometry": {
        "type": "Point",
        "coordinates": [
          79.0985709,
          21.1306036
        ]
      },
      "id": "node/4539712689"
    },
    {
      "type": "Feature",
      "properties": {
        "@id": "node/4550151789",
        "addr:postcode": "560061",
        "addr:street": "Dr. Vishnuvardhan Road",
        "name": "Vinayaka Rice Traders",
        "name:en": "Vinayaka Rice Traders",
        "shop": "department_store"
      },
      "geometry": {
        "type": "Point",
        "coordinates": [
          77.5469062,
          12.9072748
        ]
      },
      "id": "node/4550151789"
    },
    {
      "type": "Feature",
      "properties": {
        "@id": "node/4550334590",
        "name": "ಕೀರ್ತಿ ಫುಡ್ ಮಾರ್ಟ್",
        "name:en": "Keerthi foodmart",
        "name:kn": "ಕೀರ್ತಿ ಫುಡ್ ಮಾರ್ಟ್",
        "shop": "department_store"
      },
      "geometry": {
        "type": "Point",
        "coordinates": [
          77.6533179,
          13.0183685
        ]
      },
      "id": "node/4550334590"
    },
    {
      "type": "Feature",
      "properties": {
        "@id": "node/4552266414",
        "name:en": "Ravis Super Market",
        "shop": "department_store"
      },
      "geometry": {
        "type": "Point",
        "coordinates": [
          78.0799865,
          10.9596708
        ]
      },
      "id": "node/4552266414"
    },
    {
      "type": "Feature",
      "properties": {
        "@id": "node/4563309691",
        "name": "Gomang General Stores",
        "name:en": "Gomang General Stores",
        "shop": "department_store"
      },
      "geometry": {
        "type": "Point",
        "coordinates": [
          75.005272,
          15.028754
        ]
      },
      "id": "node/4563309691"
    },
    {
      "type": "Feature",
      "properties": {
        "@id": "node/4563606257",
        "addr:street": "EVK Sampath Salai",
        "name:en": "pazhamudir",
        "shop": "department_store"
      },
      "geometry": {
        "type": "Point",
        "coordinates": [
          80.2625019,
          13.0842887
        ]
      },
      "id": "node/4563606257"
    },
    {
      "type": "Feature",
      "properties": {
        "@id": "node/4563606258",
        "addr:street": "EVK Sampath Salai",
        "name:en": "Spencers daily",
        "shop": "department_store"
      },
      "geometry": {
        "type": "Point",
        "coordinates": [
          80.262681,
          13.0842585
        ]
      },
      "id": "node/4563606258"
    },
    {
      "type": "Feature",
      "properties": {
        "@id": "node/4565647989",
        "name": "Navrathan's Antique Art",
        "name:en": "Navrathan's Antique Art",
        "opening_hours": "Mo-Su 10:00-20:00",
        "shop": "department_store",
        "website": "http://navrathansantiqueart.com/"
      },
      "geometry": {
        "type": "Point",
        "coordinates": [
          77.608186,
          12.9748864
        ]
      },
      "id": "node/4565647989"
    },
    {
      "type": "Feature",
      "properties": {
        "@id": "node/4565735791",
        "name": "Clay Station",
        "name:en": "Clay Station",
        "opening_hours": "Tu-Su 10:30-13:30, 15:00-18:00",
        "shop": "department_store",
        "website": "https://claystation.in/"
      },
      "geometry": {
        "type": "Point",
        "coordinates": [
          77.6272019,
          12.9160728
        ]
      },
      "id": "node/4565735791"
    },
    {
      "type": "Feature",
      "properties": {
        "@id": "node/4565787289",
        "name": "Kynkyny Art",
        "name:en": "Kynkyny Art",
        "opening_hours": "Su-Fr 10:00-19:00",
        "shop": "department_store",
        "website": "https://kynkyny.com/"
      },
      "geometry": {
        "type": "Point",
        "coordinates": [
          77.593893,
          12.983394
        ]
      },
      "id": "node/4565787289"
    },
    {
      "type": "Feature",
      "properties": {
        "@id": "node/4569869989",
        "name": "Reliance Digital",
        "name:en": "Reliance Digital",
        "shop": "department_store"
      },
      "geometry": {
        "type": "Point",
        "coordinates": [
          77.661886,
          13.0134751
        ]
      },
      "id": "node/4569869989"
    },
    {
      "type": "Feature",
      "properties": {
        "@id": "node/4579398689",
        "name:en": "Mohan shop",
        "shop": "department_store"
      },
      "geometry": {
        "type": "Point",
        "coordinates": [
          76.7746384,
          30.3952459
        ]
      },
      "id": "node/4579398689"
    },
    {
      "type": "Feature",
      "properties": {
        "@id": "node/4584952093",
        "name:en": "nellai store",
        "shop": "department_store"
      },
      "geometry": {
        "type": "Point",
        "coordinates": [
          77.9244362,
          11.0515785
        ]
      },
      "id": "node/4584952093"
    },
    {
      "type": "Feature",
      "properties": {
        "@id": "node/4586847890",
        "name": "Lotus herbal body shop",
        "name:en": "Lotus herbal body shop",
        "shop": "department_store"
      },
      "geometry": {
        "type": "Point",
        "coordinates": [
          76.653566,
          12.318229
        ]
      },
      "id": "node/4586847890"
    },
    {
      "type": "Feature",
      "properties": {
        "@id": "node/4586898494",
        "name:en": "Karachi",
        "shop": "department_store"
      },
      "geometry": {
        "type": "Point",
        "coordinates": [
          79.0790012,
          21.1627137
        ]
      },
      "id": "node/4586898494"
    },
    {
      "type": "Feature",
      "properties": {
        "@id": "node/4590984691",
        "name": "Choci Coorg",
        "name:en": "Choci Coorg",
        "shop": "department_store"
      },
      "geometry": {
        "type": "Point",
        "coordinates": [
          75.7365455,
          12.4227354
        ]
      },
      "id": "node/4590984691"
    },
    {
      "type": "Feature",
      "properties": {
        "@id": "node/4595581501",
        "addr:postcode": "471001",
        "addr:street": "soura road",
        "email": "rishabkumarfk@gmail.com",
        "name": "General store",
        "name:en": "General store",
        "operator": "Rk",
        "shop": "department_store"
      },
      "geometry": {
        "type": "Point",
        "coordinates": [
          78.4211209,
          24.0008487
        ]
      },
      "id": "node/4595581501"
    },
    {
      "type": "Feature",
      "properties": {
        "@id": "node/4603174422",
        "addr:city": "Davanagere",
        "addr:postcode": "577002",
        "addr:street": "12th Cross",
        "name": "Jyothi Provisions Store",
        "opening_hours:covid19": "open",
        "shop": "department_store"
      },
      "geometry": {
        "type": "Point",
        "coordinates": [
          75.9202387,
          14.4580259
        ]
      },